field.header.seq,%time,field.header.stamp,field.header.frame_id,field.voltage,field.current,field.charge,field.capacity,field.design_capacity,field.percentage,field.power_supply_status,field.power_supply_health,field.power_supply_technology,field.present,field.location,field.serial_number,%time,field.header.stamp,field.header.frame_id,field.orientation.x,field.orientation.y,field.orientation.z,field.orientation.w,field.orientation_covariance0,field.orientation_covariance1,field.orientation_covariance2,field.orientation_covariance3,field.orientation_covariance4,field.orientation_covariance5,field.orientation_covariance6,field.orientation_covariance7,field.orientation_covariance8,field.angular_velocity.x,field.angular_velocity.y,field.angular_velocity.z,field.angular_velocity_covariance0,field.angular_velocity_covariance1,field.angular_velocity_covariance2,field.angular_velocity_covariance3,field.angular_velocity_covariance4,field.angular_velocity_covariance5,field.angular_velocity_covariance6,field.angular_velocity_covariance7,field.angular_velocity_covariance8,field.linear_acceleration.x,field.linear_acceleration.y,field.linear_acceleration.z,field.linear_acceleration_covariance0,field.linear_acceleration_covariance1,field.linear_acceleration_covariance2,field.linear_acceleration_covariance3,field.linear_acceleration_covariance4,field.linear_acceleration_covariance5,field.linear_acceleration_covariance6,field.linear_acceleration_covariance7,field.linear_acceleration_covariance8,%time,field.header.stamp,field.header.frame_id,field.magnetic_field.x,field.magnetic_field.y,field.magnetic_field.z,field.magnetic_field_covariance0,field.magnetic_field_covariance1,field.magnetic_field_covariance2,field.magnetic_field_covariance3,field.magnetic_field_covariance4,field.magnetic_field_covariance5,field.magnetic_field_covariance6,field.magnetic_field_covariance7,field.magnetic_field_covariance8,%time,field.header.stamp,field.header.frame_id,field.pose.position.x,field.pose.position.y,field.pose.position.z,field.pose.orientation.x,field.pose.orientation.y,field.pose.orientation.z,field.pose.orientation.w,%time,field.header.stamp,field.header.frame_id,field.fluid_pressure,field.variance,%time,field.header.stamp,field.header.frame_id,field.temperature,field.variance
52,1.5740697855601155e+18,1.574069785559837e+18,,16.4230003357,-0.0,,,,0.990000009537,2.0,0.0,0.0,1.0,id0,,1.5740697855905595e+18,1.5740697855902533e+18,base_link,0.0,0.0,0.0,0.0,-1.0,0.0,0.0,0.0,0.0,0.0,0.0,0.0,0.0,0.001,1.22464679915e-19,0.001,1.21846967915e-07,0.0,0.0,0.0,1.21846967915e-07,0.0,0.0,0.0,1.21846967915e-07,-0.10787315,0.08825985,9.80665,9e-08,0.0,0.0,0.0,9e-08,0.0,0.0,0.0,9e-08,,,,,,,,,,,,,,,,1.5740697990031793e+18,1.5740697990029478e+18,map,0.797792434692,-1.53899431229,0.212622880936,-0.00842046303949,-0.00423146703027,-0.235043377577,-0.971939196219,1.574069785591628e+18,1.5740697855914447e+18,base_link,94247.4975586,0.0,1.5740697855915558e+18,1.5740697855914447e+18,base_link,42.96,0.0
53,1.5740697857903997e+18,1.5740697857903094e+18,,16.4710006714,-0.0,,,,0.990000009537,2.0,0.0,0.0,1.0,id0,,1.5740697858207875e+18,1.574069785820633e+18,base_link,0.0,0.0,0.0,0.0,-1.0,0.0,0.0,0.0,0.0,0.0,0.0,0.0,0.0,0.0,0.0,0.0,1.21846967915e-07,0.0,0.0,0.0,1.21846967915e-07,0.0,0.0,0.0,1.21846967915e-07,-0.10787315,0.06864655,9.77723005,9e-08,0.0,0.0,0.0,9e-08,0.0,0.0,0.0,9e-08,1.5740697858207685e+18,1.574069785820633e+18,base_link,111000.0,222000.0,-379000.0,-1.0,0.0,0.0,0.0,0.0,0.0,0.0,0.0,0.0,1.5740697992719465e+18,1.5740697992717696e+18,map,0.88018321991,-1.57751893997,0.210500001907,-0.00825616599358,-0.00441202566608,-0.235179817924,-0.971906797483,1.5740697858302129e+18,1.5740697858300147e+18,base_link,94245.7946777,0.0,1.5740697858302088e+18,1.5740697858300147e+18,base_link,42.96,0.0
54,1.5740697860306053e+18,1.5740697860303916e+18,,16.3600006104,-0.0,,,,0.990000009537,2.0,0.0,0.0,1.0,id0,,1.5740697860603075e+18,1.574069786060074e+18,base_link,0.0,0.0,0.0,0.0,-1.0,0.0,0.0,0.0,0.0,0.0,0.0,0.0,0.0,0.0,0.0,0.0,1.21846967915e-07,0.0,0.0,0.0,1.21846967915e-07,0.0,0.0,0.0,1.21846967915e-07,-0.10787315,0.0784532,9.77723005,9e-08,0.0,0.0,0.0,9e-08,0.0,0.0,0.0,9e-08,1.5740697860603018e+18,1.574069786060074e+18,base_link,114000.0,217000.0,-377000.0,-1.0,0.0,0.0,0.0,0.0,0.0,0.0,0.0,0.0,1.574069799557902e+18,1.5740697995575352e+18,map,0.952318191528,-1.59630537033,0.206295251846,-0.0081703927239,-0.00457323554892,-0.235230739316,-0.971894453879,1.574069786080822e+18,1.5740697860805548e+18,base_link,94246.5515137,0.0,1.5740697860808005e+18,1.5740697860805548e+18,base_link,42.96,0.0
55,1.5740697862763766e+18,1.5740697862760893e+18,,16.3640003204,-0.0,,,,0.990000009537,2.0,0.0,0.0,1.0,id0,,1.5740697862978002e+18,1.5740697862974234e+18,base_link,0.0,0.0,0.0,0.0,-1.0,0.0,0.0,0.0,0.0,0.0,0.0,0.0,0.0,0.0,0.0,0.0,1.21846967915e-07,0.0,0.0,0.0,1.21846967915e-07,0.0,0.0,0.0,1.21846967915e-07,-0.1176798,0.06864655,9.7870367,9e-08,0.0,0.0,0.0,9e-08,0.0,0.0,0.0,9e-08,1.5740697862977743e+18,1.5740697862974234e+18,base_link,111000.0,216000.0,-369000.0,-1.0,0.0,0.0,0.0,0.0,0.0,0.0,0.0,0.0,1.57406979983545e+18,1.5740697998352604e+18,map,1.0280456543,-1.60043382645,0.196295499802,-0.00798797470978,-0.00461803117659,-0.23532988402,-0.971871756836,1.5740697863209206e+18,1.574069786320468e+18,base_link,94244.7998047,0.0,1.5740697863209206e+18,1.574069786320468e+18,base_link,42.96,0.0
56,1.5740697865127145e+18,1.5740697865124682e+18,,16.4179992676,-0.0,,,,0.990000009537,2.0,0.0,0.0,1.0,id0,,1.57406978653286e+18,1.5740697865326167e+18,base_link,0.0,0.0,0.0,0.0,-1.0,0.0,0.0,0.0,0.0,0.0,0.0,0.0,0.0,0.0,1.22464679915e-19,0.001,1.21846967915e-07,0.0,0.0,0.0,1.21846967915e-07,0.0,0.0,0.0,1.21846967915e-07,-0.0980665,0.0784532,9.77723005,9e-08,0.0,0.0,0.0,9e-08,0.0,0.0,0.0,9e-08,1.574069786532848e+18,1.5740697865326167e+18,base_link,104000.0,221000.0,-373000.0,-1.0,0.0,0.0,0.0,0.0,0.0,0.0,0.0,0.0,1.5740698001335447e+18,1.574069800133136e+18,map,1.08748722076,-1.59591054916,0.182893037796,-0.0078335845129,-0.00446332993932,-0.235476655408,-0.971838185295,1.5740697865632425e+18,1.5740697865630292e+18,base_link,94245.2453613,0.0,1.5740697865632323e+18,1.5740697865630292e+18,base_link,42.96,0.0
57,1.5740697867586179e+18,1.5740697867583654e+18,,16.4729995728,-0.0,,,,0.990000009537,2.0,0.0,0.0,1.0,id0,,1.574069786785304e+18,1.5740697867849052e+18,base_link,0.0,0.0,0.0,0.0,-1.0,0.0,0.0,0.0,0.0,0.0,0.0,0.0,0.0,0.0,-0.001,1.22464679915e-19,1.21846967915e-07,0.0,0.0,0.0,1.21846967915e-07,0.0,0.0,0.0,1.21846967915e-07,-0.10787315,0.0784532,9.7870367,9e-08,0.0,0.0,0.0,9e-08,0.0,0.0,0.0,9e-08,1.5740697867852513e+18,1.5740697867849052e+18,base_link,122000.0,216000.0,-383000.0,-1.0,0.0,0.0,0.0,0.0,0.0,0.0,0.0,0.0,1.5740698004310536e+18,1.57406980043084e+18,map,1.19157123566,-1.60311460495,0.16956114769,-0.00723053304562,-0.00648044408705,-0.235594279321,-0.971802993815,1.5740697868090104e+18,1.574069786808544e+18,base_link,94246.6308594,0.0,1.5740697868089636e+18,1.574069786808544e+18,base_link,42.96,0.0
58,1.5740697870082511e+18,1.574069787008032e+18,,16.357000351,-0.0,,,,0.990000009537,2.0,0.0,0.0,1.0,id0,,1.5740697870197596e+18,1.574069787019553e+18,base_link,0.0,0.0,0.0,0.0,-1.0,0.0,0.0,0.0,0.0,0.0,0.0,0.0,0.0,0.001,2.44929359829e-19,0.002,1.21846967915e-07,0.0,0.0,0.0,1.21846967915e-07,0.0,0.0,0.0,1.21846967915e-07,-0.0980665,0.08825985,9.77723005,9e-08,0.0,0.0,0.0,9e-08,0.0,0.0,0.0,9e-08,1.574069787019754e+18,1.574069787019553e+18,base_link,123000.0,218000.0,-371000.0,-1.0,0.0,0.0,0.0,0.0,0.0,0.0,0.0,0.0,1.5740698006968783e+18,1.5740698006964844e+18,map,1.30255365372,-1.62452459335,0.167003393173,-0.00738295566395,-0.00539757728895,-0.235701508935,-0.971782463729,1.5740697870332662e+18,1.5740697870331223e+18,base_link,94247.8271484,0.0,1.5740697870332283e+18,1.5740697870331223e+18,base_link,42.96,0.0
59,1.5740697872328312e+18,1.5740697872326382e+18,,16.361000061,-0.0,,,,0.990000009537,2.0,0.0,0.0,1.0,id0,,1.5740697872606344e+18,1.5740697872602022e+18,base_link,0.0,0.0,0.0,0.0,-1.0,0.0,0.0,0.0,0.0,0.0,0.0,0.0,0.0,0.0,0.0,0.0,1.21846967915e-07,0.0,0.0,0.0,1.21846967915e-07,0.0,0.0,0.0,1.21846967915e-07,-0.10787315,0.0784532,9.7870367,9e-08,0.0,0.0,0.0,9e-08,0.0,0.0,0.0,9e-08,1.5740697872606118e+18,1.5740697872602022e+18,base_link,112000.0,217000.0,-368000.0,-1.0,0.0,0.0,0.0,0.0,0.0,0.0,0.0,0.0,1.5740698009730107e+18,1.5740698009725804e+18,map,1.40746498108,-1.64061403275,0.161436080933,-0.00748802908976,-0.00463270506069,-0.235464633318,-0.971843029465,1.5740697872797809e+18,1.574069787279351e+18,base_link,94245.2575684,0.0,1.5740697872797957e+18,1.574069787279351e+18,base_link,42.96,0.0
60,1.5740697874802427e+18,1.574069787480043e+18,,16.4039993286,-0.0,,,,0.990000009537,2.0,0.0,0.0,1.0,id0,,1.5740697875027802e+18,1.5740697875024538e+18,base_link,0.0,0.0,0.0,0.0,-1.0,0.0,0.0,0.0,0.0,0.0,0.0,0.0,0.0,0.0,1.22464679915e-19,0.001,1.21846967915e-07,0.0,0.0,0.0,1.21846967915e-07,0.0,0.0,0.0,1.21846967915e-07,-0.10787315,0.08825985,9.77723005,9e-08,0.0,0.0,0.0,9e-08,0.0,0.0,0.0,9e-08,1.5740697875027692e+18,1.5740697875024538e+18,base_link,109000.0,217000.0,-370000.0,-1.0,0.0,0.0,0.0,0.0,0.0,0.0,0.0,0.0,1.574069801294688e+18,1.5740698012944753e+18,map,1.4743514061,-1.6534743309,0.157100200653,-0.00775700069821,-0.00330421623025,-0.235321511273,-0.971881009912,1.5740697875277279e+18,1.574069787527433e+18,base_link,94247.6135254,0.0,1.57406978752769e+18,1.574069787527433e+18,base_link,42.96,0.0
61,1.5740697877319332e+18,1.574069787731642e+18,,16.4729995728,-0.0,,,,0.990000009537,2.0,0.0,0.0,1.0,id0,,1.5740697877333637e+18,1.5740697877329728e+18,base_link,0.0,0.0,0.0,0.0,-1.0,0.0,0.0,0.0,0.0,0.0,0.0,0.0,0.0,0.0,0.0,0.0,1.21846967915e-07,0.0,0.0,0.0,1.21846967915e-07,0.0,0.0,0.0,1.21846967915e-07,-0.10787315,0.06864655,9.79684335,9e-08,0.0,0.0,0.0,9e-08,0.0,0.0,0.0,9e-08,1.5740697877333422e+18,1.5740697877329728e+18,base_link,113000.0,216000.0,-380000.0,-1.0,0.0,0.0,0.0,0.0,0.0,0.0,0.0,0.0,1.5740698015545078e+18,1.574069801553896e+18,map,1.52688121796,-1.68825769424,0.161999940872,-0.00754536638174,-0.00364996128693,-0.235185979283,-0.971914245383,1.574069787760105e+18,1.5740697877597005e+18,base_link,94245.6542969,0.0,1.5740697877600722e+18,1.5740697877597005e+18,base_link,42.96,0.0
62,1.5740697879568707e+18,1.5740697879564984e+18,,16.3549995422,-0.0,,,,0.990000009537,2.0,0.0,0.0,1.0,id0,,1.5740697879762125e+18,1.5740697879759928e+18,base_link,0.0,0.0,0.0,0.0,-1.0,0.0,0.0,0.0,0.0,0.0,0.0,0.0,0.0,-0.002,1.22464679915e-19,0.001,1.21846967915e-07,0.0,0.0,0.0,1.21846967915e-07,0.0,0.0,0.0,1.21846967915e-07,-0.0980665,0.0980665,9.7870367,9e-08,0.0,0.0,0.0,9e-08,0.0,0.0,0.0,9e-08,1.5740697879762033e+18,1.5740697879759928e+18,base_link,116000.0,217000.0,-378000.0,-1.0,0.0,0.0,0.0,0.0,0.0,0.0,0.0,0.0,1.574069801832613e+18,1.5740698018324298e+18,map,1.56538295746,-1.70605707169,0.170669794083,-0.00729700413177,-0.00441727481496,-0.235295705759,-0.971886398848,1.5740697879952123e+18,1.574069787994905e+18,base_link,94246.6247559,0.0,1.5740697879951864e+18,1.574069787994905e+18,base_link,42.96,0.0
63,1.5740697881914934e+18,1.574069788191225e+18,,16.3579998016,-0.0,,,,0.990000009537,2.0,0.0,0.0,1.0,id0,,1.5740697882264164e+18,1.574069788226006e+18,base_link,0.0,0.0,0.0,0.0,-1.0,0.0,0.0,0.0,0.0,0.0,0.0,0.0,0.0,0.001,2.44929359829e-19,0.002,1.21846967915e-07,0.0,0.0,0.0,1.21846967915e-07,0.0,0.0,0.0,1.21846967915e-07,-0.10787315,0.0784532,9.7870367,9e-08,0.0,0.0,0.0,9e-08,0.0,0.0,0.0,9e-08,1.5740697882263642e+18,1.574069788226006e+18,base_link,110000.0,218000.0,-370000.0,-1.0,0.0,0.0,0.0,0.0,0.0,0.0,0.0,0.0,1.5740698021338906e+18,1.5740698021334973e+18,map,1.63642835617,-1.72590494156,0.177448511124,-0.00640620720717,-0.00862619536697,-0.235091916041,-0.971913751459,1.5740697882329958e+18,1.5740697882325417e+18,base_link,94244.2260742,0.0,1.5740697882329874e+18,1.5740697882325417e+18,base_link,42.96,0.0
64,1.5740697884432105e+18,1.5740697884429217e+18,,16.4090003967,-0.0,,,,0.990000009537,2.0,0.0,0.0,1.0,id0,,1.574069788470586e+18,1.574069788470334e+18,base_link,0.0,0.0,0.0,0.0,-1.0,0.0,0.0,0.0,0.0,0.0,0.0,0.0,0.0,0.001,0.0,0.0,1.21846967915e-07,0.0,0.0,0.0,1.21846967915e-07,0.0,0.0,0.0,1.21846967915e-07,-0.10787315,0.0784532,9.7870367,9e-08,0.0,0.0,0.0,9e-08,0.0,0.0,0.0,9e-08,1.5740697884705859e+18,1.574069788470334e+18,base_link,108000.0,221000.0,-372000.0,-1.0,0.0,0.0,0.0,0.0,0.0,0.0,0.0,0.0,1.574069802412102e+18,1.574069802411895e+18,map,1.67291545868,-1.72770643234,0.185823202133,-0.00626771766078,-0.0081829010016,-0.234293348008,-0.972111301717,1.5740697884811151e+18,1.5740697884808474e+18,base_link,94249.3713379,0.0,1.574069788481062e+18,1.5740697884808474e+18,base_link,42.96,0.0
65,1.5740697886911532e+18,1.5740697886909235e+18,,16.4740009308,-0.0,,,,0.990000009537,2.0,0.0,0.0,1.0,id0,,1.5740697887117873e+18,1.5740697887113523e+18,base_link,0.0,0.0,0.0,0.0,-1.0,0.0,0.0,0.0,0.0,0.0,0.0,0.0,0.0,0.0,0.0,0.0,1.21846967915e-07,0.0,0.0,0.0,1.21846967915e-07,0.0,0.0,0.0,1.21846967915e-07,-0.10787315,0.08825985,9.81645665,9e-08,0.0,0.0,0.0,9e-08,0.0,0.0,0.0,9e-08,1.574069788711749e+18,1.5740697887113523e+18,base_link,112000.0,221000.0,-379000.0,-1.0,0.0,0.0,0.0,0.0,0.0,0.0,0.0,0.0,1.5740698026940244e+18,1.5740698026935644e+18,map,1.7241692543,-1.71002912521,0.192037582397,-0.00606674699867,-0.00882763160455,-0.234577059018,-0.972038513066,1.5740697887139904e+18,1.5740697887134986e+18,base_link,94248.5473633,0.0,1.574069788713896e+18,1.5740697887134986e+18,base_link,42.96,0.0
66,1.5740697889121352e+18,1.5740697889118126e+18,,16.3549995422,-0.0,,,,0.990000009537,2.0,0.0,0.0,1.0,id0,,1.5740697889303508e+18,1.5740697889301338e+18,base_link,0.0,0.0,0.0,0.0,-1.0,0.0,0.0,0.0,0.0,0.0,0.0,0.0,0.0,0.0,1.22464679915e-19,0.001,1.21846967915e-07,0.0,0.0,0.0,1.21846967915e-07,0.0,0.0,0.0,1.21846967915e-07,-0.10787315,0.0784532,9.79684335,9e-08,0.0,0.0,0.0,9e-08,0.0,0.0,0.0,9e-08,1.5740697889303378e+18,1.5740697889301338e+18,base_link,112000.0,218000.0,-380000.0,-1.0,0.0,0.0,0.0,0.0,0.0,0.0,0.0,0.0,1.5740698029723807e+18,1.5740698029721037e+18,map,1.75354909897,-1.68310880661,0.1965944767,-0.00609945919659,-0.00782076546417,-0.234535701739,-0.972056910286,1.57406978895185e+18,1.5740697889516093e+18,base_link,94245.5444336,0.0,1.5740697889517883e+18,1.5740697889516093e+18,base_link,42.96,0.0
67,1.574069789155261e+18,1.5740697891550308e+18,,16.3579998016,-0.0,,,,0.990000009537,2.0,0.0,0.0,1.0,id0,,1.5740697891817539e+18,1.5740697891815002e+18,base_link,0.0,0.0,0.0,0.0,-1.0,0.0,0.0,0.0,0.0,0.0,0.0,0.0,0.0,0.0,0.0,0.0,1.21846967915e-07,0.0,0.0,0.0,1.21846967915e-07,0.0,0.0,0.0,1.21846967915e-07,-0.0980665,0.0784532,9.7870367,9e-08,0.0,0.0,0.0,9e-08,0.0,0.0,0.0,9e-08,1.5740697891817236e+18,1.5740697891815002e+18,base_link,118000.0,218000.0,-379000.0,-1.0,0.0,0.0,0.0,0.0,0.0,0.0,0.0,0.0,1.5740698032347927e+18,1.574069803234351e+18,map,1.75980901718,-1.65109300613,0.189723014832,-0.00591697391761,-0.00790394286434,-0.235076152337,-0.971926807794,1.574069789196662e+18,1.5740697891964508e+18,base_link,94246.8322754,0.0,1.574069789196646e+18,1.5740697891964508e+18,base_link,42.96,0.0
68,1.5740697893929114e+18,1.5740697893925307e+18,,16.3439998627,-0.0,,,,0.990000009537,2.0,0.0,0.0,1.0,id0,,1.5740697894143834e+18,1.574069789414116e+18,base_link,0.0,0.0,0.0,0.0,-1.0,0.0,0.0,0.0,0.0,0.0,0.0,0.0,0.0,-0.001,0.0,0.0,1.21846967915e-07,0.0,0.0,0.0,1.21846967915e-07,0.0,0.0,0.0,1.21846967915e-07,-0.10787315,0.06864655,9.80665,9e-08,0.0,0.0,0.0,9e-08,0.0,0.0,0.0,9e-08,1.5740697894143872e+18,1.574069789414116e+18,base_link,107000.0,221000.0,-369000.0,-1.0,0.0,0.0,0.0,0.0,0.0,0.0,0.0,0.0,1.5740698035161595e+18,1.574069803515782e+18,map,1.74995708466,-1.63026762009,0.18562078476,-0.00550313922877,-0.00806869710608,-0.235202170979,-0.971897397029,1.5740697894490732e+18,1.574069789448624e+18,base_link,94247.0458984,0.0,1.5740697894490734e+18,1.574069789448624e+18,base_link,42.96,0.0
69,1.5740697896319089e+18,1.5740697896317588e+18,,16.4729995728,-0.0,,,,0.990000009537,2.0,0.0,0.0,1.0,id0,,1.5740697896553684e+18,1.5740697896552253e+18,base_link,0.0,0.0,0.0,0.0,-1.0,0.0,0.0,0.0,0.0,0.0,0.0,0.0,0.0,0.001,2.44929359829e-19,0.002,1.21846967915e-07,0.0,0.0,0.0,1.21846967915e-07,0.0,0.0,0.0,1.21846967915e-07,-0.10787315,0.0784532,9.77723005,9e-08,0.0,0.0,0.0,9e-08,0.0,0.0,0.0,9e-08,1.574069789655469e+18,1.5740697896552253e+18,base_link,109000.0,218000.0,-369000.0,-1.0,0.0,0.0,0.0,0.0,0.0,0.0,0.0,0.0,1.5740698038325489e+18,1.57406980383236e+18,map,1.76587152481,-1.61360311508,0.171518325806,-0.00580709052264,-0.00669650920228,-0.235010319318,-0.971952459886,1.574069789671671e+18,1.574069789671429e+18,base_link,94247.7661133,0.0,1.5740697896716575e+18,1.574069789671429e+18,base_link,42.96,0.0
70,1.5740697898812362e+18,1.5740697898808978e+18,,16.452999115,-0.0,,,,0.990000009537,2.0,0.0,0.0,1.0,id0,,1.574069789896909e+18,1.5740697898965637e+18,base_link,0.0,0.0,0.0,0.0,-1.0,0.0,0.0,0.0,0.0,0.0,0.0,0.0,0.0,0.002,0.002,-2.44929359829e-19,1.21846967915e-07,0.0,0.0,0.0,1.21846967915e-07,0.0,0.0,0.0,1.21846967915e-07,-0.08825985,0.0784532,9.77723005,9e-08,0.0,0.0,0.0,9e-08,0.0,0.0,0.0,9e-08,1.574069789896893e+18,1.5740697898965637e+18,base_link,109000.0,222000.0,-377000.0,-1.0,0.0,0.0,0.0,0.0,0.0,0.0,0.0,0.0,1.5740698041180436e+18,1.574069804117601e+18,map,1.83535718918,-1.57404470444,0.155454397202,-0.00577436108685,-0.00755526764448,-0.235082262431,-0.971928960663,1.5740697899118804e+18,1.574069789911598e+18,base_link,94248.0651855,0.0,1.5740697899118502e+18,1.574069789911598e+18,base_link,42.96,0.0
71,1.5740697901115802e+18,1.57406979011139e+18,,16.3560009003,-0.0,,,,0.990000009537,2.0,0.0,0.0,1.0,id0,,1.5740697901362803e+18,1.574069790136056e+18,base_link,0.0,0.0,0.0,0.0,-1.0,0.0,0.0,0.0,0.0,0.0,0.0,0.0,0.0,0.0,-0.001,1.22464679915e-19,1.21846967915e-07,0.0,0.0,0.0,1.21846967915e-07,0.0,0.0,0.0,1.21846967915e-07,-0.0980665,0.08825985,9.7870367,9e-08,0.0,0.0,0.0,9e-08,0.0,0.0,0.0,9e-08,1.574069790136261e+18,1.574069790136056e+18,base_link,118000.0,218000.0,-373000.0,-1.0,0.0,0.0,0.0,0.0,0.0,0.0,0.0,0.0,1.5740698043882906e+18,1.5740698043880215e+18,map,1.86326646805,-1.5526509285,0.146318912506,-0.00589643748489,-0.00891169218152,-0.235730081454,-0.971759817272,1.5740697901611423e+18,1.5740697901609718e+18,base_link,94245.5688477,0.0,1.5740697901611348e+18,1.5740697901609718e+18,base_link,42.96,0.0
72,1.5740697903612334e+18,1.574069790360909e+18,,16.3409996033,-0.0,,,,0.990000009537,2.0,0.0,0.0,1.0,id0,,1.574069790385475e+18,1.5740697903850954e+18,base_link,0.0,0.0,0.0,0.0,-1.0,0.0,0.0,0.0,0.0,0.0,0.0,0.0,0.0,0.001,0.001,0.002,1.21846967915e-07,0.0,0.0,0.0,1.21846967915e-07,0.0,0.0,0.0,1.21846967915e-07,-0.0980665,0.08825985,9.79684335,9e-08,0.0,0.0,0.0,9e-08,0.0,0.0,0.0,9e-08,1.574069790385455e+18,1.5740697903850954e+18,base_link,114000.0,218000.0,-368000.0,-1.0,0.0,0.0,0.0,0.0,0.0,0.0,0.0,0.0,1.5740698046541652e+18,1.574069804653633e+18,map,1.85499048233,-1.5566239357,0.153846740723,-0.0061245597249,-0.00860655103869,-0.235574901442,-0.971798787228,1.574069790393205e+18,1.574069790392794e+18,base_link,94245.7641602,0.0,1.574069790393183e+18,1.574069790392794e+18,base_link,42.95,0.0
73,1.5740697906080225e+18,1.574069790607888e+18,,16.4270000458,-0.0,,,,0.990000009537,2.0,0.0,0.0,1.0,id0,,1.5740697906146944e+18,1.574069790614463e+18,base_link,0.0,0.0,0.0,0.0,-1.0,0.0,0.0,0.0,0.0,0.0,0.0,0.0,0.0,0.0,-0.001,0.001,1.21846967915e-07,0.0,0.0,0.0,1.21846967915e-07,0.0,0.0,0.0,1.21846967915e-07,-0.10787315,0.06864655,9.79684335,9e-08,0.0,0.0,0.0,9e-08,0.0,0.0,0.0,9e-08,1.5740697906146721e+18,1.574069790614463e+18,base_link,106000.0,217000.0,-375000.0,-1.0,0.0,0.0,0.0,0.0,0.0,0.0,0.0,0.0,1.5740698049323256e+18,1.574069804932194e+18,map,1.87849903107,-1.56302022934,0.151581048965,-0.00673175470366,-0.00801501526684,-0.236667482263,-0.971534325615,1.5740697906510482e+18,1.5740697906507448e+18,base_link,94248.3520508,0.0,1.574069790651022e+18,1.5740697906507448e+18,base_link,42.96,0.0
74,1.5740697908428375e+18,1.5740697908426478e+18,,16.4470005035,-0.0,,,,0.990000009537,2.0,0.0,0.0,1.0,id0,,1.5740697908620227e+18,1.574069790861782e+18,base_link,0.0,0.0,0.0,0.0,-1.0,0.0,0.0,0.0,0.0,0.0,0.0,0.0,0.0,0.001,0.0,0.0,1.21846967915e-07,0.0,0.0,0.0,1.21846967915e-07,0.0,0.0,0.0,1.21846967915e-07,-0.0980665,0.0784532,9.80665,9e-08,0.0,0.0,0.0,9e-08,0.0,0.0,0.0,9e-08,1.574069790862016e+18,1.574069790861782e+18,base_link,114000.0,217000.0,-376000.0,-1.0,0.0,0.0,0.0,0.0,0.0,0.0,0.0,0.0,1.5740698051984328e+18,1.5740698051981532e+18,map,1.90649032593,-1.55631113052,0.151658535004,-0.0066178505604,-0.00899101002759,-0.236387519772,-0.971594723271,1.5740697908765688e+18,1.574069790876198e+18,base_link,94247.5280762,0.0,1.5740697908765563e+18,1.574069790876198e+18,base_link,42.95,0.0
75,1.5740697910901043e+18,1.574069791089905e+18,,16.361000061,-0.0,,,,0.990000009537,2.0,0.0,0.0,1.0,id0,,1.5740697911053463e+18,1.5740697911051185e+18,base_link,0.0,0.0,0.0,0.0,-1.0,0.0,0.0,0.0,0.0,0.0,0.0,0.0,0.0,0.0,-0.001,0.001,1.21846967915e-07,0.0,0.0,0.0,1.21846967915e-07,0.0,0.0,0.0,1.21846967915e-07,-0.10787315,0.08825985,9.7870367,9e-08,0.0,0.0,0.0,9e-08,0.0,0.0,0.0,9e-08,1.574069791105319e+18,1.5740697911051185e+18,base_link,116000.0,218000.0,-367000.0,-1.0,0.0,0.0,0.0,0.0,0.0,0.0,0.0,0.0,1.5740698054823803e+18,1.5740698054818854e+18,map,1.94710016251,-1.52895689011,0.151596307755,-0.00710323858945,-0.00890292836062,-0.236709774306,-0.97151364613,1.5740697911204444e+18,1.57406979112022e+18,base_link,94245.1293945,0.0,1.574069791120409e+18,1.57406979112022e+18,base_link,42.96,0.0
76,1.5740697913229586e+18,1.5740697913225797e+18,,16.3349990845,-0.0,,,,0.990000009537,2.0,0.0,0.0,1.0,id0,,1.574069791340524e+18,1.5740697913401024e+18,base_link,0.0,0.0,0.0,0.0,-1.0,0.0,0.0,0.0,0.0,0.0,0.0,0.0,0.0,0.0,-0.001,0.001,1.21846967915e-07,0.0,0.0,0.0,1.21846967915e-07,0.0,0.0,0.0,1.21846967915e-07,-0.1176798,0.0784532,9.79684335,9e-08,0.0,0.0,0.0,9e-08,0.0,0.0,0.0,9e-08,1.5740697913405176e+18,1.5740697913401024e+18,base_link,109000.0,220000.0,-372000.0,-1.0,0.0,0.0,0.0,0.0,0.0,0.0,0.0,0.0,1.5740698057621207e+18,1.5740698057618898e+18,map,2.0264954567,-1.47903299332,0.139585256577,-0.00671225297086,-0.00743441634533,-0.236773043685,-0.971513356006,1.5740697913574917e+18,1.5740697913571884e+18,base_link,94245.7092285,0.0,1.5740697913574712e+18,1.5740697913571884e+18,base_link,42.96,0.0
77,1.5740697915512297e+18,1.5740697915510467e+18,,16.4349994659,-0.0,,,,0.990000009537,2.0,0.0,0.0,1.0,id0,,1.5740697915907712e+18,1.574069791590498e+18,base_link,0.0,0.0,0.0,0.0,-1.0,0.0,0.0,0.0,0.0,0.0,0.0,0.0,0.0,0.002,1.22464679915e-19,0.001,1.21846967915e-07,0.0,0.0,0.0,1.21846967915e-07,0.0,0.0,0.0,1.21846967915e-07,-0.10787315,0.08825985,9.7870367,9e-08,0.0,0.0,0.0,9e-08,0.0,0.0,0.0,9e-08,1.5740697915907717e+18,1.574069791590498e+18,base_link,107000.0,217000.0,-370000.0,-1.0,0.0,0.0,0.0,0.0,0.0,0.0,0.0,0.0,1.574069806047412e+18,1.5740698060469765e+18,map,2.11340045929,-1.40629911423,0.143625020981,-0.000415564429263,-0.0225683803407,-0.228243198825,-0.973342456541,1.5740697915916498e+18,1.5740697915912799e+18,base_link,94246.4294434,0.0,1.57406979159157e+18,1.5740697915912799e+18,base_link,42.95,0.0
78,1.574069791790674e+18,1.5740697917903452e+18,,16.4710006714,-0.0,,,,0.990000009537,2.0,0.0,0.0,1.0,id0,,1.5740697918149652e+18,1.5740697918145708e+18,base_link,0.0,0.0,0.0,0.0,-1.0,0.0,0.0,0.0,0.0,0.0,0.0,0.0,0.0,0.001,1.22464679915e-19,0.001,1.21846967915e-07,0.0,0.0,0.0,1.21846967915e-07,0.0,0.0,0.0,1.21846967915e-07,-0.0980665,0.0980665,9.7674234,9e-08,0.0,0.0,0.0,9e-08,0.0,0.0,0.0,9e-08,1.5740697918149711e+18,1.5740697918145708e+18,base_link,115000.0,218000.0,-380000.0,-1.0,0.0,0.0,0.0,0.0,0.0,0.0,0.0,0.0,1.5740698063522e+18,1.5740698063520005e+18,map,2.22096157074,-1.33322095871,0.161438941956,-0.00867545386127,-0.000239199076288,-0.21668628344,-0.976202711455,1.5740697918317064e+18,1.5740697918313167e+18,base_link,94247.3937988,0.0,1.574069791831674e+18,1.5740697918313167e+18,base_link,42.96,0.0
79,1.5740697920424707e+18,1.5740697920422991e+18,,16.3589992523,-0.0,,,,0.990000009537,2.0,0.0,0.0,1.0,id0,,1.5740697920558444e+18,1.5740697920556324e+18,base_link,0.0,0.0,0.0,0.0,-1.0,0.0,0.0,0.0,0.0,0.0,0.0,0.0,0.0,0.0,1.22464679915e-19,0.001,1.21846967915e-07,0.0,0.0,0.0,1.21846967915e-07,0.0,0.0,0.0,1.21846967915e-07,-0.0980665,0.0784532,9.79684335,9e-08,0.0,0.0,0.0,9e-08,0.0,0.0,0.0,9e-08,1.5740697920558157e+18,1.5740697920556324e+18,base_link,116000.0,221000.0,-375000.0,-1.0,0.0,0.0,0.0,0.0,0.0,0.0,0.0,0.0,1.5740698066221504e+18,1.5740698066216827e+18,map,2.299077034,-1.28484106064,0.211056232452,-0.0023350281109,-0.000506116273326,-0.216192741563,-0.976347781267,1.574069792074852e+18,1.574069792074604e+18,base_link,94247.8088379,0.0,1.5740697920748275e+18,1.574069792074604e+18,base_link,42.96,0.0
80,1.574069792288586e+18,1.574069792288256e+18,,16.361000061,-0.0,,,,0.990000009537,2.0,0.0,0.0,1.0,id0,,1.57406979231139e+18,1.5740697923110566e+18,base_link,0.0,0.0,0.0,0.0,-1.0,0.0,0.0,0.0,0.0,0.0,0.0,0.0,0.0,0.0,-0.002,0.001,1.21846967915e-07,0.0,0.0,0.0,1.21846967915e-07,0.0,0.0,0.0,1.21846967915e-07,-0.10787315,0.0784532,9.79684335,9e-08,0.0,0.0,0.0,9e-08,0.0,0.0,0.0,9e-08,1.5740697923113708e+18,1.5740697923110566e+18,base_link,111000.0,219000.0,-371000.0,-1.0,0.0,0.0,0.0,0.0,0.0,0.0,0.0,0.0,1.5740698069054495e+18,1.574069806905278e+18,map,2.32480716705,-1.30014181137,0.270692110062,-0.00195619016172,-0.00313568650636,-0.21628155972,-0.976324038276,1.5740697923233603e+18,1.5740697923229263e+18,base_link,94243.7805176,0.0,1.5740697923233298e+18,1.5740697923229263e+18,base_link,42.95,0.0
81,1.5740697925108544e+18,1.5740697925106524e+18,,16.4349994659,-0.0,,,,0.990000009537,2.0,0.0,0.0,1.0,id0,,1.5740697925294815e+18,1.5740697925292698e+18,base_link,0.0,0.0,0.0,0.0,-1.0,0.0,0.0,0.0,0.0,0.0,0.0,0.0,0.0,0.0,1.22464679915e-19,0.001,1.21846967915e-07,0.0,0.0,0.0,1.21846967915e-07,0.0,0.0,0.0,1.21846967915e-07,-0.0980665,0.0784532,9.7870367,9e-08,0.0,0.0,0.0,9e-08,0.0,0.0,0.0,9e-08,1.574069792529456e+18,1.5740697925292698e+18,base_link,109000.0,221000.0,-370000.0,-1.0,0.0,0.0,0.0,0.0,0.0,0.0,0.0,0.0,1.57406980721443e+18,1.574069807214165e+18,map,2.24626207352,-1.41500234604,0.327633857727,-0.00433311394222,-0.00379123171675,-0.213430078822,-0.976941375999,1.5740697925599337e+18,1.5740697925597276e+18,base_link,94246.5148926,0.0,1.5740697925599365e+18,1.5740697925597276e+18,base_link,42.96,0.0
82,1.5740697927690552e+18,1.5740697927687985e+18,,16.4750003815,-0.0,,,,0.990000009537,2.0,0.0,0.0,1.0,id0,,1.5740697927867113e+18,1.5740697927863255e+18,base_link,0.0,0.0,0.0,0.0,-1.0,0.0,0.0,0.0,0.0,0.0,0.0,0.0,0.0,0.0,0.0,0.0,1.21846967915e-07,0.0,0.0,0.0,1.21846967915e-07,0.0,0.0,0.0,1.21846967915e-07,-0.10787315,0.0784532,9.7870367,9e-08,0.0,0.0,0.0,9e-08,0.0,0.0,0.0,9e-08,1.5740697927866893e+18,1.5740697927863255e+18,base_link,115000.0,217000.0,-376000.0,-1.0,0.0,0.0,0.0,0.0,0.0,0.0,0.0,0.0,1.5740698074973266e+18,1.5740698074969293e+18,map,2.19649600983,-1.45521593094,0.393529415131,-0.00433311394222,-0.00379123171675,-0.213430078822,-0.976941375999,1.574069792805402e+18,1.574069792804917e+18,base_link,94247.3388672,0.0,1.5740697928053852e+18,1.574069792804917e+18,base_link,42.95,0.0
83,1.5740697929953746e+18,1.574069792995183e+18,,16.3560009003,-0.0,,,,0.990000009537,2.0,0.0,0.0,1.0,id0,,1.5740697930199762e+18,1.574069793019715e+18,base_link,0.0,0.0,0.0,0.0,-1.0,0.0,0.0,0.0,0.0,0.0,0.0,0.0,0.0,0.0,1.22464679915e-19,0.001,1.21846967915e-07,0.0,0.0,0.0,1.21846967915e-07,0.0,0.0,0.0,1.21846967915e-07,-0.0980665,0.08825985,9.7870367,9e-08,0.0,0.0,0.0,9e-08,0.0,0.0,0.0,9e-08,1.5740697930199652e+18,1.574069793019715e+18,base_link,114000.0,218000.0,-374000.0,-1.0,0.0,0.0,0.0,0.0,0.0,0.0,0.0,0.0,1.574069807762556e+18,1.5740698077622717e+18,map,2.15981245041,-1.47039556503,0.454332113266,0.00249119029115,-0.00268433278608,-0.217615967559,-0.976027601552,1.5740697930420396e+18,1.574069793041788e+18,base_link,94245.6848145,0.0,1.5740697930419843e+18,1.574069793041788e+18,base_link,42.96,0.0
84,1.574069793231528e+18,1.5740697932311619e+18,,16.3560009003,-0.0,,,,0.990000009537,2.0,0.0,0.0,1.0,id0,,1.5740697932579372e+18,1.574069793257516e+18,base_link,0.0,0.0,0.0,0.0,-1.0,0.0,0.0,0.0,0.0,0.0,0.0,0.0,0.0,-0.001,1.22464679915e-19,0.001,1.21846967915e-07,0.0,0.0,0.0,1.21846967915e-07,0.0,0.0,0.0,1.21846967915e-07,-0.0980665,0.0784532,9.7870367,9e-08,0.0,0.0,0.0,9e-08,0.0,0.0,0.0,9e-08,1.5740697932578967e+18,1.574069793257516e+18,base_link,111000.0,218000.0,-375000.0,-1.0,0.0,0.0,0.0,0.0,0.0,0.0,0.0,0.0,1.574069808043285e+18,1.5740698080428485e+18,map,2.13337898254,-1.49183607101,0.511230230331,0.000795174595476,0.00204736141789,-0.21681060168,-0.976211216391,1.5740697932818092e+18,1.5740697932813972e+18,base_link,94246.9482422,0.0,1.5740697932817938e+18,1.5740697932813972e+18,base_link,42.95,0.0
85,1.574069793480968e+18,1.574069793480818e+18,,16.4060001373,-0.0,,,,0.990000009537,2.0,0.0,0.0,1.0,id0,,1.5740697935010806e+18,1.5740697935008704e+18,base_link,0.0,0.0,0.0,0.0,-1.0,0.0,0.0,0.0,0.0,0.0,0.0,0.0,0.0,0.0,2.44929359829e-19,0.002,1.21846967915e-07,0.0,0.0,0.0,1.21846967915e-07,0.0,0.0,0.0,1.21846967915e-07,-0.10787315,0.08825985,9.7870367,9e-08,0.0,0.0,0.0,9e-08,0.0,0.0,0.0,9e-08,1.5740697935010765e+18,1.5740697935008704e+18,base_link,105000.0,223000.0,-370000.0,-1.0,0.0,0.0,0.0,0.0,0.0,0.0,0.0,0.0,1.574069808314418e+18,1.5740698083141896e+18,map,2.16094923019,-1.47560358047,0.533500671387,7.10764097557e-06,0.00767599386885,-0.212299931409,-0.977174405207,1.5740697935126418e+18,1.574069793512437e+18,base_link,94246.3623047,0.0,1.5740697935126474e+18,1.574069793512437e+18,base_link,42.95,0.0
86,1.5740697937168832e+18,1.5740697937164984e+18,,16.4710006714,-0.0,,,,0.990000009537,2.0,0.0,0.0,1.0,id0,,1.574069793733688e+18,1.5740697937332884e+18,base_link,0.0,0.0,0.0,0.0,-1.0,0.0,0.0,0.0,0.0,0.0,0.0,0.0,0.0,0.002,-0.001,0.002,1.21846967915e-07,0.0,0.0,0.0,1.21846967915e-07,0.0,0.0,0.0,1.21846967915e-07,-0.10787315,0.0784532,9.7870367,9e-08,0.0,0.0,0.0,9e-08,0.0,0.0,0.0,9e-08,1.5740697937336714e+18,1.5740697937332884e+18,base_link,114000.0,220000.0,-377000.0,-1.0,0.0,0.0,0.0,0.0,0.0,0.0,0.0,0.0,1.5740698086364024e+18,1.574069808635984e+18,map,2.25933408737,-1.45531511307,0.536859273911,-0.00298468246807,0.0138648894747,-0.190941299098,-0.981498994808,1.574069793766876e+18,1.5740697937664842e+18,base_link,94246.7346191,0.0,1.5740697937668562e+18,1.5740697937664842e+18,base_link,42.95,0.0
87,1.5740697940479754e+18,1.5740697940478062e+18,,16.3470001221,-0.0,,,,0.990000009537,2.0,0.0,0.0,1.0,id0,,1.574069793932636e+18,1.5740697939324375e+18,base_link,0.0,0.0,0.0,0.0,-1.0,0.0,0.0,0.0,0.0,0.0,0.0,0.0,0.0,0.001,1.22464679915e-19,0.001,1.21846967915e-07,0.0,0.0,0.0,1.21846967915e-07,0.0,0.0,0.0,1.21846967915e-07,-0.10787315,0.0784532,9.77723005,9e-08,0.0,0.0,0.0,9e-08,0.0,0.0,0.0,9e-08,1.5740697939326339e+18,1.5740697939324375e+18,base_link,116000.0,223000.0,-375000.0,-1.0,0.0,0.0,0.0,0.0,0.0,0.0,0.0,0.0,1.5740698088725663e+18,1.5740698088723305e+18,map,2.32902193069,-1.42655611038,0.538537740707,-0.00463672204223,0.0112583239413,-0.153434960862,-0.98808373316,1.5740697939471575e+18,1.5740697939469837e+18,base_link,94245.715332,0.0,1.5740697939471462e+18,1.5740697939469837e+18,base_link,42.95,0.0
88,1.5740697943545636e+18,1.5740697943542674e+18,,16.2770004272,-0.0,,,,0.990000009537,2.0,0.0,0.0,1.0,id0,,1.5740697941814093e+18,1.5740697941809457e+18,base_link,0.0,0.0,0.0,0.0,-1.0,0.0,0.0,0.0,0.0,0.0,0.0,0.0,0.0,0.0,2.44929359829e-19,0.002,1.21846967915e-07,0.0,0.0,0.0,1.21846967915e-07,0.0,0.0,0.0,1.21846967915e-07,-0.1176798,0.0784532,9.7870367,9e-08,0.0,0.0,0.0,9e-08,0.0,0.0,0.0,9e-08,1.574069794181372e+18,1.5740697941809457e+18,base_link,118000.0,220000.0,-374000.0,-1.0,0.0,0.0,0.0,0.0,0.0,0.0,0.0,0.0,1.574069809158745e+18,1.5740698091582907e+18,map,2.4246840477,-1.42404699326,0.542735815048,-0.00663398689846,0.0121879423922,-0.149507138633,-0.988663269155,1.574069794183781e+18,1.5740697941832865e+18,base_link,94246.0632324,0.0,1.5740697941837686e+18,1.5740697941832865e+18,base_link,42.95,0.0
89,1.5740697947054026e+18,1.5740697947050473e+18,,16.3400001526,-0.0,,,,0.990000009537,2.0,0.0,0.0,1.0,id0,,1.5740697944152878e+18,1.5740697944149832e+18,base_link,0.0,0.0,0.0,0.0,-1.0,0.0,0.0,0.0,0.0,0.0,0.0,0.0,0.0,0.0,1.22464679915e-19,0.001,1.21846967915e-07,0.0,0.0,0.0,1.21846967915e-07,0.0,0.0,0.0,1.21846967915e-07,-0.0980665,0.08825985,9.7870367,9e-08,0.0,0.0,0.0,9e-08,0.0,0.0,0.0,9e-08,1.5740697944152407e+18,1.5740697944149832e+18,base_link,114000.0,221000.0,-377000.0,-1.0,0.0,0.0,0.0,0.0,0.0,0.0,0.0,0.0,1.5740698094318126e+18,1.574069809431648e+18,map,2.51487064362,-1.46934652328,0.562334775925,-0.00684176884398,0.0258494117212,-0.170589705732,-0.98497926395,1.5740697944334008e+18,1.5740697944331297e+18,base_link,94248.0651855,0.0,1.574069794433391e+18,1.5740697944331297e+18,base_link,42.95,0.0
90,1.5740697950047642e+18,1.5740697950046282e+18,,16.3479995728,-0.0,,,,0.990000009537,2.0,0.0,0.0,1.0,id0,,1.5740697946550326e+18,1.5740697946547965e+18,base_link,0.0,0.0,0.0,0.0,-1.0,0.0,0.0,0.0,0.0,0.0,0.0,0.0,0.0,0.0,3.67394039744e-19,0.003,1.21846967915e-07,0.0,0.0,0.0,1.21846967915e-07,0.0,0.0,0.0,1.21846967915e-07,-0.10787315,0.0784532,9.77723005,9e-08,0.0,0.0,0.0,9e-08,0.0,0.0,0.0,9e-08,1.5740697946550252e+18,1.5740697946547965e+18,base_link,116000.0,220000.0,-377000.0,-1.0,0.0,0.0,0.0,0.0,0.0,0.0,0.0,0.0,1.5740698097129047e+18,1.5740698097124644e+18,map,2.52175474167,-1.56355237961,0.585033893585,-0.0100569261726,0.0310829873938,-0.180569227845,-0.983019562413,1.574069794667924e+18,1.5740697946676698e+18,base_link,94246.0449219,0.0,1.5740697946679148e+18,1.5740697946676698e+18,base_link,42.95,0.0
91,1.5740697953312435e+18,1.574069795330873e+18,,16.2889995575,-0.0,,,,0.990000009537,2.0,0.0,0.0,1.0,id0,,1.5740697948916145e+18,1.5740697948913042e+18,base_link,0.0,0.0,0.0,0.0,-1.0,0.0,0.0,0.0,0.0,0.0,0.0,0.0,0.0,-0.001,1.22464679915e-19,0.001,1.21846967915e-07,0.0,0.0,0.0,1.21846967915e-07,0.0,0.0,0.0,1.21846967915e-07,-0.10787315,0.08825985,9.81645665,9e-08,0.0,0.0,0.0,9e-08,0.0,0.0,0.0,9e-08,1.5740697948916232e+18,1.5740697948913042e+18,base_link,118000.0,217000.0,-378000.0,-1.0,0.0,0.0,0.0,0.0,0.0,0.0,0.0,0.0,1.574069809972685e+18,1.5740698099724408e+18,map,2.53328132629,-1.58195066452,0.592163801193,-0.0146341874351,0.0317435772785,-0.175316134059,-0.983891477247,1.574069794905546e+18,1.5740697949053253e+18,base_link,94245.3674316,0.0,1.5740697949055199e+18,1.5740697949053253e+18,base_link,42.95,0.0
92,1.57406979561612e+18,1.5740697956158167e+18,,16.3409996033,-0.0,,,,0.990000009537,2.0,0.0,0.0,1.0,id0,,1.5740697951360205e+18,1.574069795135608e+18,base_link,0.0,0.0,0.0,0.0,-1.0,0.0,0.0,0.0,0.0,0.0,0.0,0.0,0.0,0.0,2.44929359829e-19,0.002,1.21846967915e-07,0.0,0.0,0.0,1.21846967915e-07,0.0,0.0,0.0,1.21846967915e-07,-0.0980665,0.0980665,9.7674234,9e-08,0.0,0.0,0.0,9e-08,0.0,0.0,0.0,9e-08,1.5740697951359846e+18,1.574069795135608e+18,base_link,118000.0,220000.0,-381000.0,-1.0,0.0,0.0,0.0,0.0,0.0,0.0,0.0,0.0,1.5740698102935434e+18,1.5740698102932524e+18,map,2.62500715256,-1.5013461113,0.596633434296,-0.0145315461435,0.0368866660026,-0.174914669113,-0.983785071328,1.5740697951469076e+18,1.5740697951464573e+18,base_link,94244.8181152,0.0,1.574069795146896e+18,1.5740697951464573e+18,base_link,42.95,0.0
93,1.5740697959696973e+18,1.574069795969489e+18,,16.3479995728,-0.0,,,,0.990000009537,2.0,0.0,0.0,1.0,id0,,1.574069795374237e+18,1.5740697953738378e+18,base_link,0.0,0.0,0.0,0.0,-1.0,0.0,0.0,0.0,0.0,0.0,0.0,0.0,0.0,0.002,0.0,0.0,1.21846967915e-07,0.0,0.0,0.0,1.21846967915e-07,0.0,0.0,0.0,1.21846967915e-07,-0.0980665,0.0784532,9.7870367,9e-08,0.0,0.0,0.0,9e-08,0.0,0.0,0.0,9e-08,1.574069795374225e+18,1.5740697953738378e+18,base_link,114000.0,217000.0,-378000.0,-1.0,0.0,0.0,0.0,0.0,0.0,0.0,0.0,0.0,1.5740698105907215e+18,1.5740698105902833e+18,map,2.76376247406,-1.4442076683,0.606128692627,-0.014220742593,0.0385663264167,-0.159592257562,-0.986326883073,1.5740697953935718e+18,1.574069795393422e+18,base_link,94245.4589844,0.0,1.574069795393559e+18,1.574069795393422e+18,base_link,42.95,0.0
94,1.5740697963005325e+18,1.574069796300181e+18,,16.3400001526,-0.0,,,,0.990000009537,2.0,0.0,0.0,1.0,id0,,1.574069795646567e+18,1.5740697956461624e+18,base_link,0.0,0.0,0.0,0.0,-1.0,0.0,0.0,0.0,0.0,0.0,0.0,0.0,0.0,0.0,1.22464679915e-19,0.001,1.21846967915e-07,0.0,0.0,0.0,1.21846967915e-07,0.0,0.0,0.0,1.21846967915e-07,-0.10787315,0.08825985,9.77723005,9e-08,0.0,0.0,0.0,9e-08,0.0,0.0,0.0,9e-08,1.574069795646564e+18,1.5740697956461624e+18,base_link,117000.0,218000.0,-374000.0,-1.0,0.0,0.0,0.0,0.0,0.0,0.0,0.0,0.0,1.5740698108531392e+18,1.5740698108528684e+18,map,2.86627388,-1.41970300674,0.612637519836,-0.0138986922484,0.0363527403308,-0.160011607019,-0.986347601124,1.5740697956563023e+18,1.5740697956559084e+18,base_link,94245.9411621,0.0,1.5740697956562668e+18,1.5740697956559084e+18,base_link,42.95,0.0
95,1.5740697966671588e+18,1.574069796666849e+18,,16.3519992828,-0.0,,,,0.990000009537,2.0,0.0,0.0,1.0,id0,,1.5740697958475105e+18,1.5740697958472952e+18,base_link,0.0,0.0,0.0,0.0,-1.0,0.0,0.0,0.0,0.0,0.0,0.0,0.0,0.0,0.003,-0.003,0.001,1.21846967915e-07,0.0,0.0,0.0,1.21846967915e-07,0.0,0.0,0.0,1.21846967915e-07,-0.0980665,0.14709975,9.7870367,9e-08,0.0,0.0,0.0,9e-08,0.0,0.0,0.0,9e-08,1.574069795847501e+18,1.5740697958472952e+18,base_link,118000.0,215000.0,-374000.0,-1.0,0.0,0.0,0.0,0.0,0.0,0.0,0.0,0.0,1.5740698111599713e+18,1.5740698111595556e+18,map,2.98084449768,-1.3811879158,0.620645046234,-0.0142562330079,0.0425979633556,-0.173919241051,-0.983734858044,1.5740697958678748e+18,1.574069795867671e+18,base_link,94246.6674805,0.0,1.574069795867876e+18,1.574069795867671e+18,base_link,42.95,0.0
96,1.5740697969518328e+18,1.5740697969516618e+18,,16.3479995728,-0.0,,,,0.990000009537,2.0,0.0,0.0,1.0,id0,,1.574069796086946e+18,1.5740697960867108e+18,base_link,0.0,0.0,0.0,0.0,-1.0,0.0,0.0,0.0,0.0,0.0,0.0,0.0,0.0,0.0,-0.002,0.004,1.21846967915e-07,0.0,0.0,0.0,1.21846967915e-07,0.0,0.0,0.0,1.21846967915e-07,-0.08825985,0.0392266,9.7870367,9e-08,0.0,0.0,0.0,9e-08,0.0,0.0,0.0,9e-08,1.5740697960869512e+18,1.5740697960867108e+18,base_link,119000.0,217000.0,-372000.0,-1.0,0.0,0.0,0.0,0.0,0.0,0.0,0.0,0.0,1.5740698114416013e+18,1.5740698114413668e+18,map,3.11477851868,-1.34664773941,0.655957221985,-0.0126668601638,0.0346045868953,-0.190720482005,-0.980952481501,1.5740697961134182e+18,1.574069796113003e+18,base_link,94245.2087402,0.0,1.5740697961133532e+18,1.574069796113003e+18,base_link,42.95,0.0
97,1.5740697972765274e+18,1.574069797276229e+18,,16.3120002747,-0.0,,,,0.990000009537,2.0,0.0,0.0,1.0,id0,,1.574069796356848e+18,1.574069796356641e+18,base_link,0.0,0.0,0.0,0.0,-1.0,0.0,0.0,0.0,0.0,0.0,0.0,0.0,0.0,0.001,-0.001,1.22464679915e-19,1.21846967915e-07,0.0,0.0,0.0,1.21846967915e-07,0.0,0.0,0.0,1.21846967915e-07,-0.10787315,0.0784532,9.77723005,9e-08,0.0,0.0,0.0,9e-08,0.0,0.0,0.0,9e-08,1.574069796356844e+18,1.574069796356641e+18,base_link,124000.0,212000.0,-368000.0,-1.0,0.0,0.0,0.0,0.0,0.0,0.0,0.0,0.0,1.5740698116874796e+18,1.5740698116871086e+18,map,3.20011806488,-1.31404829025,0.695043563843,-0.0149811008729,0.0251458070382,-0.195751427894,-0.980216625794,1.5740697963659336e+18,1.5740697963657234e+18,base_link,94248.1994629,0.0,1.574069796365957e+18,1.5740697963657234e+18,base_link,42.96,0.0
98,1.5740697975960753e+18,1.5740697975958054e+18,,16.3010005951,-0.0,,,,0.990000009537,2.0,0.0,0.0,1.0,id0,,1.574069796585854e+18,1.5740697965853842e+18,base_link,0.0,0.0,0.0,0.0,-1.0,0.0,0.0,0.0,0.0,0.0,0.0,0.0,0.0,0.0,-0.001,0.001,1.21846967915e-07,0.0,0.0,0.0,1.21846967915e-07,0.0,0.0,0.0,1.21846967915e-07,-0.14709975,0.0784532,9.7870367,9e-08,0.0,0.0,0.0,9e-08,0.0,0.0,0.0,9e-08,1.5740697965857987e+18,1.5740697965853842e+18,base_link,122000.0,217000.0,-367000.0,-1.0,0.0,0.0,0.0,0.0,0.0,0.0,0.0,0.0,1.5740698119817413e+18,1.5740698119815101e+18,map,3.23063325882,-1.20404863358,0.766550779343,-0.013131670821,0.0177979686856,-0.193617993517,-0.980827642412,1.574069796612776e+18,1.5740697966124096e+18,base_link,94248.1079102,0.0,1.5740697966127805e+18,1.5740697966124096e+18,base_link,42.96,0.0
99,1.574069797932621e+18,1.574069797932434e+18,,16.3439998627,-0.0,,,,0.990000009537,2.0,0.0,0.0,1.0,id0,,1.5740697968134618e+18,1.5740697968132562e+18,base_link,0.0,0.0,0.0,0.0,-1.0,0.0,0.0,0.0,0.0,0.0,0.0,0.0,0.0,0.001,0.0,0.0,1.21846967915e-07,0.0,0.0,0.0,1.21846967915e-07,0.0,0.0,0.0,1.21846967915e-07,-0.0980665,0.08825985,9.75761675,9e-08,0.0,0.0,0.0,9e-08,0.0,0.0,0.0,9e-08,1.5740697968134618e+18,1.5740697968132562e+18,base_link,118000.0,209000.0,-369000.0,-1.0,0.0,0.0,0.0,0.0,0.0,0.0,0.0,0.0,1.574069812268727e+18,1.5740698122682376e+18,map,3.22775554657,-1.10343694687,0.839848041534,-0.00812753412629,0.00265540249957,-0.195413588385,-0.980683650063,1.5740697968312947e+18,1.5740697968309202e+18,base_link,94244.8242188,0.0,1.5740697968312876e+18,1.5740697968309202e+18,base_link,42.95,0.0
100,1.5740697982297236e+18,1.5740697982293862e+18,,16.313999176,-0.0,,,,0.990000009537,2.0,0.0,0.0,1.0,id0,,1.5740697970483154e+18,1.5740697970480666e+18,base_link,0.0,0.0,0.0,0.0,-1.0,0.0,0.0,0.0,0.0,0.0,0.0,0.0,0.0,0.0,0.002,0.002,1.21846967915e-07,0.0,0.0,0.0,1.21846967915e-07,0.0,0.0,0.0,1.21846967915e-07,-0.10787315,0.08825985,9.7870367,9e-08,0.0,0.0,0.0,9e-08,0.0,0.0,0.0,9e-08,1.5740697970482844e+18,1.5740697970480666e+18,base_link,121000.0,216000.0,-372000.0,-1.0,0.0,0.0,0.0,0.0,0.0,0.0,0.0,0.0,1.574069812536423e+18,1.5740698125361687e+18,map,3.21744680405,-1.04355859756,0.919650554657,-0.00300778145486,-0.014804584543,-0.199403376639,-0.979801036391,1.574069797071874e+18,1.5740697970716751e+18,base_link,94244.0734863,0.0,1.5740697970718684e+18,1.5740697970716751e+18,base_link,42.95,0.0
101,1.5740697985576842e+18,1.5740697985573704e+18,,16.3530006409,-0.0,,,,0.990000009537,2.0,0.0,0.0,1.0,id0,,1.5740697973218688e+18,1.5740697973215862e+18,base_link,0.0,0.0,0.0,0.0,-1.0,0.0,0.0,0.0,0.0,0.0,0.0,0.0,0.0,0.0,-0.002,2.44929359829e-19,1.21846967915e-07,0.0,0.0,0.0,1.21846967915e-07,0.0,0.0,0.0,1.21846967915e-07,-0.14709975,0.0784532,9.79684335,9e-08,0.0,0.0,0.0,9e-08,0.0,0.0,0.0,9e-08,1.5740697973218573e+18,1.5740697973215862e+18,base_link,120000.0,213000.0,-367000.0,-1.0,0.0,0.0,0.0,0.0,0.0,0.0,0.0,0.0,1.574069812813814e+18,1.574069812813429e+18,map,3.17053127289,-1.0668129921,1.00966262817,0.002050097347,-0.011277202344,-0.205084214257,-0.978677212809,1.574069797323337e+18,1.57406979732314e+18,base_link,94245.5444336,0.0,1.574069797323324e+18,1.57406979732314e+18,base_link,42.96,0.0
102,1.5740697988703496e+18,1.5740697988701868e+18,,16.3530006409,-0.0,,,,0.990000009537,2.0,0.0,0.0,1.0,id0,,1.5740697975323735e+18,1.5740697975322094e+18,base_link,0.0,0.0,0.0,0.0,-1.0,0.0,0.0,0.0,0.0,0.0,0.0,0.0,0.0,-0.002,0.0,0.0,1.21846967915e-07,0.0,0.0,0.0,1.21846967915e-07,0.0,0.0,0.0,1.21846967915e-07,-0.0980665,0.04903325,9.7870367,9e-08,0.0,0.0,0.0,9e-08,0.0,0.0,0.0,9e-08,1.5740697975323666e+18,1.5740697975322094e+18,base_link,117000.0,215000.0,-365000.0,-1.0,0.0,0.0,0.0,0.0,0.0,0.0,0.0,0.0,1.5740698130927954e+18,1.5740698130924764e+18,map,3.13925170898,-1.07189702988,1.09600138664,0.00348776286888,-0.0124084341498,-0.204319669974,-0.978819359603,1.574069797559137e+18,1.574069797558729e+18,base_link,94245.123291,0.0,1.5740697975590966e+18,1.574069797558729e+18,base_link,42.95,0.0
103,1.57406979921412e+18,1.574069799213757e+18,,16.2870006561,-0.0,,,,0.990000009537,2.0,0.0,0.0,1.0,id0,,1.5740697977704202e+18,1.5740697977700006e+18,base_link,0.0,0.0,0.0,0.0,-1.0,0.0,0.0,0.0,0.0,0.0,0.0,0.0,0.0,0.0,0.0,0.0,1.21846967915e-07,0.0,0.0,0.0,1.21846967915e-07,0.0,0.0,0.0,1.21846967915e-07,-0.0980665,0.0980665,9.77723005,9e-08,0.0,0.0,0.0,9e-08,0.0,0.0,0.0,9e-08,1.5740697977704072e+18,1.5740697977700006e+18,base_link,120000.0,213000.0,-366000.0,-1.0,0.0,0.0,0.0,0.0,0.0,0.0,0.0,0.0,1.5740698134084803e+18,1.5740698134082435e+18,map,3.14667081833,-1.05434846878,1.19415044785,0.0203650120104,-0.0224120111557,-0.196632048949,-0.980009594528,1.5740697977869868e+18,1.5740697977867034e+18,base_link,94246.5820312,0.0,1.5740697977870044e+18,1.5740697977867034e+18,base_link,42.96,0.0
104,1.574069799533706e+18,1.5740697995332902e+18,,16.3530006409,-0.0,,,,0.990000009537,2.0,0.0,0.0,1.0,id0,,1.5740697980097344e+18,1.5740697980095142e+18,base_link,0.0,0.0,0.0,0.0,-1.0,0.0,0.0,0.0,0.0,0.0,0.0,0.0,0.0,0.0,0.0,0.0,1.21846967915e-07,0.0,0.0,0.0,1.21846967915e-07,0.0,0.0,0.0,1.21846967915e-07,-0.10787315,0.0784532,9.79684335,9e-08,0.0,0.0,0.0,9e-08,0.0,0.0,0.0,9e-08,1.574069798009727e+18,1.5740697980095142e+18,base_link,119000.0,212000.0,-371000.0,-1.0,0.0,0.0,0.0,0.0,0.0,0.0,0.0,0.0,1.57406981374728e+18,1.5740698137469043e+18,map,3.26308298111,-1.02099847794,1.28018796444,0.0160675815809,0.00292289438568,-0.206373818014,-0.978336923942,1.574069798030588e+18,1.5740697980303936e+18,base_link,94245.5505371,0.0,1.5740697980305795e+18,1.5740697980303936e+18,base_link,42.95,0.0
105,1.574069799808348e+18,1.574069799808137e+18,,16.3479995728,-0.0,,,,0.990000009537,2.0,0.0,0.0,1.0,id0,,1.5740697982636493e+18,1.5740697982632932e+18,base_link,0.0,0.0,0.0,0.0,-1.0,0.0,0.0,0.0,0.0,0.0,0.0,0.0,0.0,0.0,-0.001,0.001,1.21846967915e-07,0.0,0.0,0.0,1.21846967915e-07,0.0,0.0,0.0,1.21846967915e-07,-0.1176798,0.0784532,9.81645665,9e-08,0.0,0.0,0.0,9e-08,0.0,0.0,0.0,9e-08,1.574069798263603e+18,1.5740697982632932e+18,base_link,126000.0,215000.0,-369000.0,-1.0,0.0,0.0,0.0,0.0,0.0,0.0,0.0,0.0,1.5740698139906962e+18,1.5740698139904515e+18,map,3.38903331757,-0.98310136795,1.33009517193,0.0294254576876,0.00760221688974,-0.197891757225,-0.979752622431,1.5740697982755807e+18,1.5740697982751777e+18,base_link,94244.3054199,0.0,1.5740697982755612e+18,1.5740697982751777e+18,base_link,42.95,0.0
106,1.5740698001109747e+18,1.57406980011056e+18,,16.3530006409,-0.0,,,,0.990000009537,2.0,0.0,0.0,1.0,id0,,1.5740697984952013e+18,1.5740697984950292e+18,base_link,0.0,0.0,0.0,0.0,-1.0,0.0,0.0,0.0,0.0,0.0,0.0,0.0,0.0,0.001,-0.001,0.001,1.21846967915e-07,0.0,0.0,0.0,1.21846967915e-07,0.0,0.0,0.0,1.21846967915e-07,-0.10787315,0.08825985,9.7870367,9e-08,0.0,0.0,0.0,9e-08,0.0,0.0,0.0,9e-08,1.5740697984951741e+18,1.5740697984950292e+18,base_link,120000.0,211000.0,-367000.0,-1.0,0.0,0.0,0.0,0.0,0.0,0.0,0.0,0.0,1.574069814258726e+18,1.5740698142583375e+18,map,3.51660728455,-0.949479579926,1.3810864687,0.0294254576876,0.00760221688974,-0.197891757225,-0.979752622431,1.5740697985043108e+18,1.5740697985041172e+18,base_link,94246.2158203,0.0,1.574069798504278e+18,1.5740697985041172e+18,base_link,42.96,0.0
107,1.5740698003939843e+18,1.57406980039373e+18,,16.2889995575,-0.0,,,,0.990000009537,2.0,0.0,0.0,1.0,id0,,1.5740697987309284e+18,1.5740697987305408e+18,base_link,0.0,0.0,0.0,0.0,-1.0,0.0,0.0,0.0,0.0,0.0,0.0,0.0,0.0,0.0,0.001,0.002,1.21846967915e-07,0.0,0.0,0.0,1.21846967915e-07,0.0,0.0,0.0,1.21846967915e-07,-0.08825985,0.0784532,9.79684335,9e-08,0.0,0.0,0.0,9e-08,0.0,0.0,0.0,9e-08,1.574069798730907e+18,1.5740697987305408e+18,base_link,118000.0,211000.0,-373000.0,-1.0,0.0,0.0,0.0,0.0,0.0,0.0,0.0,0.0,1.5740698145316134e+18,1.574069814531333e+18,map,3.62217497826,-0.927444934845,1.45616650581,0.0333627941662,-0.01681226374,-0.183327228819,-0.982341793332,1.5740697987485793e+18,1.5740697987481802e+18,base_link,94245.9716797,0.0,1.574069798748558e+18,1.5740697987481802e+18,base_link,42.95,0.0
108,1.5740698007382638e+18,1.5740698007380943e+18,,16.3519992828,-0.0,,,,0.990000009537,2.0,0.0,0.0,1.0,id0,,1.5740697989705475e+18,1.5740697989703567e+18,base_link,0.0,0.0,0.0,0.0,-1.0,0.0,0.0,0.0,0.0,0.0,0.0,0.0,0.0,0.001,-0.001,1.22464679915e-19,1.21846967915e-07,0.0,0.0,0.0,1.21846967915e-07,0.0,0.0,0.0,1.21846967915e-07,-0.12748645,0.06864655,9.7674234,9e-08,0.0,0.0,0.0,9e-08,0.0,0.0,0.0,9e-08,1.5740697989705487e+18,1.5740697989703567e+18,base_link,116000.0,221000.0,-375000.0,-1.0,0.0,0.0,0.0,0.0,0.0,0.0,0.0,0.0,1.5740698148480883e+18,1.5740698148475853e+18,map,3.6384677887,-0.927381038666,1.51756799221,0.0200849681712,-0.0171227279767,-0.176941698549,-0.983867390228,1.574069798994493e+18,1.5740697989942433e+18,base_link,94247.5219727,0.0,1.574069798994493e+18,1.5740697989942433e+18,base_link,42.95,0.0
109,1.5740698010571003e+18,1.5740698010567677e+18,,16.3530006409,-0.0,,,,0.990000009537,2.0,0.0,0.0,1.0,id0,,1.5740697992350792e+18,1.5740697992346954e+18,base_link,0.0,0.0,0.0,0.0,-1.0,0.0,0.0,0.0,0.0,0.0,0.0,0.0,0.0,0.0,1.22464679915e-19,0.001,1.21846967915e-07,0.0,0.0,0.0,1.21846967915e-07,0.0,0.0,0.0,1.21846967915e-07,-0.0980665,0.06864655,9.80665,9e-08,0.0,0.0,0.0,9e-08,0.0,0.0,0.0,9e-08,1.5740697992350492e+18,1.5740697992346954e+18,base_link,125000.0,213000.0,-373000.0,-1.0,0.0,0.0,0.0,0.0,0.0,0.0,0.0,0.0,1.574069815093075e+18,1.574069815092897e+18,map,3.64411687851,-0.91548204422,1.55259943008,0.00162205822928,-0.0488724073163,-0.170677755376,-0.984112778369,1.5740697992528607e+18,1.5740697992524908e+18,base_link,94245.0866699,0.0,1.5740697992528678e+18,1.5740697992524908e+18,base_link,42.96,0.0
110,1.574069801329407e+18,1.5740698013292157e+18,,16.2940006256,-0.0,,,,0.990000009537,2.0,0.0,0.0,1.0,id0,,1.5740697994544788e+18,1.5740697994543002e+18,base_link,0.0,0.0,0.0,0.0,-1.0,0.0,0.0,0.0,0.0,0.0,0.0,0.0,0.0,0.0,1.22464679915e-19,0.001,1.21846967915e-07,0.0,0.0,0.0,1.21846967915e-07,0.0,0.0,0.0,1.21846967915e-07,-0.08825985,0.06864655,9.7870367,9e-08,0.0,0.0,0.0,9e-08,0.0,0.0,0.0,9e-08,1.5740697994544847e+18,1.5740697994543002e+18,base_link,122000.0,211000.0,-368000.0,-1.0,0.0,0.0,0.0,0.0,0.0,0.0,0.0,0.0,1.5740698153534717e+18,1.574069815353127e+18,map,3.65132689476,-0.920783519745,1.60330677032,0.0139621130015,-0.03564318473,-0.152139969513,-0.98761736136,1.5740697994681277e+18,1.5740697994678543e+18,base_link,94244.6777344,0.0,1.5740697994680596e+18,1.5740697994678543e+18,base_link,42.95,0.0
111,1.5740698016055084e+18,1.5740698016051395e+18,,16.3470001221,-0.0,,,,0.990000009537,2.0,0.0,0.0,1.0,id0,,1.57406979970032e+18,1.5740697996999444e+18,base_link,0.0,0.0,0.0,0.0,-1.0,0.0,0.0,0.0,0.0,0.0,0.0,0.0,0.0,0.003,0.008,0.009,1.21846967915e-07,0.0,0.0,0.0,1.21846967915e-07,0.0,0.0,0.0,1.21846967915e-07,-0.0784532,0.10787315,9.8262633,9e-08,0.0,0.0,0.0,9e-08,0.0,0.0,0.0,9e-08,1.574069799700311e+18,1.5740697996999444e+18,base_link,121000.0,216000.0,-372000.0,-1.0,0.0,0.0,0.0,0.0,0.0,0.0,0.0,0.0,1.5740698156135813e+18,1.574069815613296e+18,map,3.66148686409,-0.919741153717,1.66203606129,0.00970595818077,-0.0336438942254,-0.17447201689,-0.984039327507,1.5740697997168125e+18,1.5740697997164273e+18,base_link,94247.0153809,0.0,1.5740697997168407e+18,1.5740697997164273e+18,base_link,42.95,0.0
112,1.574069801930852e+18,1.57406980193067e+18,,16.3490009308,-0.0,,,,0.990000009537,2.0,0.0,0.0,1.0,id0,,1.5740697999330714e+18,1.5740697999328911e+18,base_link,0.0,0.0,0.0,0.0,-1.0,0.0,0.0,0.0,0.0,0.0,0.0,0.0,0.0,0.0,-1.3471114790600001e-18,-0.011,1.21846967915e-07,0.0,0.0,0.0,1.21846967915e-07,0.0,0.0,0.0,1.21846967915e-07,-0.0392266,0.0588399,9.7870367,9e-08,0.0,0.0,0.0,9e-08,0.0,0.0,0.0,9e-08,1.5740697999330504e+18,1.5740697999328911e+18,base_link,115000.0,209000.0,-372000.0,-1.0,0.0,0.0,0.0,0.0,0.0,0.0,0.0,0.0,1.574069815874441e+18,1.5740698158740396e+18,map,3.6405646801,-0.880359172821,1.70973348618,0.0142128634784,-0.00292439044642,-0.173122829671,-0.98479334294,1.5740697999451213e+18,1.574069799944899e+18,base_link,94246.5820312,0.0,1.574069799945109e+18,1.574069799944899e+18,base_link,42.96,0.0
113,1.574069802225773e+18,1.5740698022254113e+18,,16.3549995422,-0.0,,,,0.990000009537,2.0,0.0,0.0,1.0,id0,,1.5740698001757437e+18,1.5740698001753236e+18,base_link,0.0,0.0,0.0,0.0,-1.0,0.0,0.0,0.0,0.0,0.0,0.0,0.0,0.0,-0.001,0.038,-0.015,1.21846967915e-07,0.0,0.0,0.0,1.21846967915e-07,0.0,0.0,0.0,1.21846967915e-07,-0.2157463,0.1765197,9.7870367,9e-08,0.0,0.0,0.0,9e-08,0.0,0.0,0.0,9e-08,1.574069800175716e+18,1.5740698001753236e+18,base_link,119000.0,214000.0,-369000.0,-1.0,0.0,0.0,0.0,0.0,0.0,0.0,0.0,0.0,1.574069816139168e+18,1.574069816138954e+18,map,3.64440369606,-0.868015766144,1.74302744865,0.0180267480698,-0.00450018069221,-0.174861704575,-0.984417680155,1.5740698001894907e+18,1.574069800189088e+18,base_link,94246.5209961,0.0,1.5740698001894812e+18,1.574069800189088e+18,base_link,42.96,0.0
114,1.5740698025601585e+18,1.574069802559796e+18,,16.2950000763,-0.0,,,,0.990000009537,2.0,0.0,0.0,1.0,id0,,1.5740698004508086e+18,1.5740698004505564e+18,base_link,0.0,0.0,0.0,0.0,-1.0,0.0,0.0,0.0,0.0,0.0,0.0,0.0,0.0,0.0,-0.014,-0.014,1.21846967915e-07,0.0,0.0,0.0,1.21846967915e-07,0.0,0.0,0.0,1.21846967915e-07,-0.16671305,0.0784532,9.77723005,9e-08,0.0,0.0,0.0,9e-08,0.0,0.0,0.0,9e-08,1.5740698004508004e+18,1.5740698004505564e+18,base_link,116000.0,216000.0,-371000.0,-1.0,0.0,0.0,0.0,0.0,0.0,0.0,0.0,0.0,1.5740698163938028e+18,1.5740698163933522e+18,map,3.65878033638,-0.882154941559,1.75504541397,0.0211859651557,-0.00776243163043,-0.182896823183,-0.982873161504,1.574069800452206e+18,1.5740698004519306e+18,base_link,94244.7875977,0.0,1.5740698004522145e+18,1.5740698004519306e+18,base_link,42.96,0.0
115,1.5740698029045565e+18,1.574069802904351e+18,,16.3519992828,-0.0,,,,0.990000009537,2.0,0.0,0.0,1.0,id0,,1.5740698006481185e+18,1.5740698006476598e+18,base_link,0.0,0.0,0.0,0.0,-1.0,0.0,0.0,0.0,0.0,0.0,0.0,0.0,0.0,0.003,0.017,0.016,1.21846967915e-07,0.0,0.0,0.0,1.21846967915e-07,0.0,0.0,0.0,1.21846967915e-07,-0.0980665,-0.0392266,9.7478101,9e-08,0.0,0.0,0.0,9e-08,0.0,0.0,0.0,9e-08,1.5740698006480993e+18,1.5740698006476598e+18,base_link,118000.0,215000.0,-373000.0,-1.0,0.0,0.0,0.0,0.0,0.0,0.0,0.0,0.0,1.5740698166845745e+18,1.5740698166844692e+18,map,3.68427491188,-0.909030437469,1.75994575024,0.035173987889,-0.026816495867,-0.194810319051,-0.97984315363,1.5740698006656453e+18,1.574069800665231e+18,base_link,94246.6369629,0.0,1.5740698006656512e+18,1.574069800665231e+18,base_link,42.95,0.0
116,1.5740698031826396e+18,1.5740698031823311e+18,,16.3180007935,-0.0,,,,0.990000009537,2.0,0.0,0.0,1.0,id0,,1.574069800889572e+18,1.5740698008893028e+18,base_link,0.0,0.0,0.0,0.0,-1.0,0.0,0.0,0.0,0.0,0.0,0.0,0.0,0.0,0.0,0.038,0.01,1.21846967915e-07,0.0,0.0,0.0,1.21846967915e-07,0.0,0.0,0.0,1.21846967915e-07,-0.10787315,0.0392266,9.79684335,9e-08,0.0,0.0,0.0,9e-08,0.0,0.0,0.0,9e-08,1.5740698008895665e+18,1.5740698008893028e+18,base_link,120000.0,209000.0,-374000.0,-1.0,0.0,0.0,0.0,0.0,0.0,0.0,0.0,0.0,1.5740698169345748e+18,1.5740698169342408e+18,map,3.71564483643,-0.930166721344,1.77987766266,0.0332834951579,-0.0322546054295,-0.203139257513,-0.978052294837,1.5740698009080732e+18,1.574069800907941e+18,base_link,94245.9716797,0.0,1.5740698009080576e+18,1.574069800907941e+18,base_link,42.95,0.0
117,1.5740698034722117e+18,1.5740698034719939e+18,,16.3040008545,-0.0599999986589,,,,0.990000009537,2.0,0.0,0.0,1.0,id0,,1.5740698011303383e+18,1.5740698011298842e+18,base_link,0.0,0.0,0.0,0.0,-1.0,0.0,0.0,0.0,0.0,0.0,0.0,0.0,0.0,0.0,0.017,-0.007,1.21846967915e-07,0.0,0.0,0.0,1.21846967915e-07,0.0,0.0,0.0,1.21846967915e-07,0.1176798,0.06864655,9.7870367,9e-08,0.0,0.0,0.0,9e-08,0.0,0.0,0.0,9e-08,1.574069801130335e+18,1.5740698011298842e+18,base_link,123000.0,216000.0,-369000.0,-1.0,0.0,0.0,0.0,0.0,0.0,0.0,0.0,0.0,1.5740698171924618e+18,1.5740698171921462e+18,map,3.75257897377,-0.94798707962,1.80692028999,0.0317472296116,-0.0134450940009,-0.19295038918,-0.980602615831,1.5740698011542188e+18,1.5740698011537733e+18,base_link,94244.0185547,0.0,1.5740698011541865e+18,1.5740698011537733e+18,base_link,42.96,0.0
118,1.5740698037682516e+18,1.5740698037680356e+18,,16.3500003815,-0.0900000035763,,,,0.990000009537,2.0,0.0,0.0,1.0,id0,,1.57406980138139e+18,1.5740698013811085e+18,base_link,0.0,0.0,0.0,0.0,-1.0,0.0,0.0,0.0,0.0,0.0,0.0,0.0,0.0,-0.011,0.031,-0.001,1.21846967915e-07,0.0,0.0,0.0,1.21846967915e-07,0.0,0.0,0.0,1.21846967915e-07,-0.06864655,0.08825985,9.77723005,9e-08,0.0,0.0,0.0,9e-08,0.0,0.0,0.0,9e-08,1.5740698013813834e+18,1.5740698013811085e+18,base_link,116000.0,212000.0,-366000.0,-1.0,0.0,0.0,0.0,0.0,0.0,0.0,0.0,0.0,1.5740698174845153e+18,1.5740698174840942e+18,map,3.79263806343,-0.972759723663,1.84151446819,0.0312256678455,-0.00344021755916,-0.182944950355,-0.98262112114,1.5740698013883796e+18,1.5740698013881958e+18,base_link,94248.7487793,0.0,1.5740698013883968e+18,1.5740698013881958e+18,base_link,42.96,0.0
119,1.5740698040849428e+18,1.5740698040845975e+18,,16.343000412,-0.10000000149,,,,0.990000009537,2.0,0.0,0.0,1.0,id0,,1.5740698016314355e+18,1.5740698016310648e+18,base_link,0.0,0.0,0.0,0.0,-1.0,0.0,0.0,0.0,0.0,0.0,0.0,0.0,0.0,0.003,-0.022,-0.005,1.21846967915e-07,0.0,0.0,0.0,1.21846967915e-07,0.0,0.0,0.0,1.21846967915e-07,-0.08825985,0.08825985,9.7674234,9e-08,0.0,0.0,0.0,9e-08,0.0,0.0,0.0,9e-08,1.574069801631436e+18,1.5740698016310648e+18,base_link,121000.0,213000.0,-368000.0,-1.0,0.0,0.0,0.0,0.0,0.0,0.0,0.0,0.0,1.5740698177334413e+18,1.5740698177331476e+18,map,3.82081842422,-1.01863527298,1.86026835442,0.030950935333,-0.00321309159624,-0.170350020559,-0.984892169803,1.574069801648272e+18,1.5740698016478705e+18,base_link,94245.0866699,0.0,1.5740698016482568e+18,1.5740698016478705e+18,base_link,42.96,0.0
120,1.5740698044499405e+18,1.574069804449703e+18,,16.3500003815,-0.10000000149,,,,0.990000009537,2.0,0.0,0.0,1.0,id0,,1.5740698018543729e+18,1.5740698018541737e+18,base_link,0.0,0.0,0.0,0.0,-1.0,0.0,0.0,0.0,0.0,0.0,0.0,0.0,0.0,0.002,0.012,0.021,1.21846967915e-07,0.0,0.0,0.0,1.21846967915e-07,0.0,0.0,0.0,1.21846967915e-07,-0.14709975,0.0392266,9.77723005,9e-08,0.0,0.0,0.0,9e-08,0.0,0.0,0.0,9e-08,1.5740698018543217e+18,1.5740698018541737e+18,base_link,119000.0,211000.0,-364000.0,-1.0,0.0,0.0,0.0,0.0,0.0,0.0,0.0,0.0,1.5740698179898483e+18,1.574069817989622e+18,map,3.84559011459,-1.10907030106,1.86952412128,0.0296360854231,-0.00777596768171,-0.171040809563,-0.984787427941,1.5740698018698816e+18,1.574069801869675e+18,base_link,94246.1669922,0.0,1.5740698018698583e+18,1.574069801869675e+18,base_link,42.96,0.0
121,1.574069804736254e+18,1.5740698047360873e+18,,16.3460006714,-0.119999997318,,,,0.990000009537,2.0,0.0,0.0,1.0,id0,,1.5740698021004362e+18,1.5740698021000364e+18,base_link,0.0,0.0,0.0,0.0,-1.0,0.0,0.0,0.0,0.0,0.0,0.0,0.0,0.0,-0.011,-0.037,-0.01,1.21846967915e-07,0.0,0.0,0.0,1.21846967915e-07,0.0,0.0,0.0,1.21846967915e-07,-0.1569064,0.02941995,9.77723005,9e-08,0.0,0.0,0.0,9e-08,0.0,0.0,0.0,9e-08,1.5740698021004237e+18,1.5740698021000364e+18,base_link,123000.0,214000.0,-369000.0,-1.0,0.0,0.0,0.0,0.0,0.0,0.0,0.0,0.0,1.5740698182560596e+18,1.5740698182556442e+18,map,3.88244557381,-1.20014810562,1.87108075619,0.0290197348658,-0.00605922585924,-0.181521848249,-0.982939957158,1.5740698021056899e+18,1.5740698021052467e+18,base_link,94246.2158203,0.0,1.5740698021056453e+18,1.5740698021052467e+18,base_link,42.96,0.0
122,1.574069805045248e+18,1.574069805044881e+18,,16.3439998627,-0.259999990463,,,,0.990000009537,2.0,0.0,0.0,1.0,id0,,1.5740698023373827e+18,1.574069802337191e+18,base_link,0.0,0.0,0.0,0.0,-1.0,0.0,0.0,0.0,0.0,0.0,0.0,0.0,0.0,0.006,-0.009,-0.004,1.21846967915e-07,0.0,0.0,0.0,1.21846967915e-07,0.0,0.0,0.0,1.21846967915e-07,-0.1176798,0.0980665,9.7870367,9e-08,0.0,0.0,0.0,9e-08,0.0,0.0,0.0,9e-08,1.5740698023373747e+18,1.574069802337191e+18,base_link,125000.0,213000.0,-371000.0,-1.0,0.0,0.0,0.0,0.0,0.0,0.0,0.0,0.0,1.5740698185366356e+18,1.5740698185363779e+18,map,3.90134954453,-1.25307893753,1.87194156647,0.0353075586181,-0.0176948293417,-0.189312819101,-0.981122278742,1.574069802351634e+18,1.5740698023513923e+18,base_link,94245.4833984,0.0,1.574069802351557e+18,1.5740698023513923e+18,base_link,42.95,0.0
