field.header.seq,%time,field.header.stamp,field.header.frame_id,field.voltage,field.current,field.charge,field.capacity,field.design_capacity,field.percentage,field.serial_number,%time.1,field.header.stamp.1,field.angular_velocity.x,field.angular_velocity.y,field.angular_velocity.z,field.angular_velocity_covariance0,field.angular_velocity_covariance4,field.angular_velocity_covariance8,field.linear_acceleration.x,field.linear_acceleration.y,field.linear_acceleration.z,field.linear_acceleration_covariance0,field.linear_acceleration_covariance4,field.linear_acceleration_covariance8,%time.2,field.header.stamp.2,field.magnetic_field.x,field.magnetic_field.y,field.magnetic_field.z,%time.3,field.header.stamp.3,field.pose.position.x,field.pose.position.y,field.pose.position.z,field.pose.orientation.x,field.pose.orientation.y,field.pose.orientation.z,field.pose.orientation.w,%time.4,field.header.stamp.4,field.fluid_pressure,%time.5,field.header.stamp.5,field.temperature,fault_prediction,anomaly_score
320,1.5740698589492564e+18,1.5740698589490263e+18,,16.3990001678,-0.0,,,,0.990000009537,,1.5740698498852628e+18,1.5740698498847493e+18,-0.002,-0.026,0.004,1.21846967915e-07,1.21846967915e-07,1.21846967915e-07,-0.22555295,0.0588399,9.7674234,9e-08,9e-08,9e-08,1.5740698498852247e+18,1.5740698498847493e+18,38000.0,227000.0,-358000.0,1.574069827495924e+18,1.574069827495589e+18,3.2567951714121715,-0.6578450435545226,0.40666120168644876,0.0019116727413196976,-0.016144441176382703,-0.2082914798044683,-0.9767310304856146,1.574069849896615e+18,1.5740698498961823e+18,94245.7214355,1.574069849896587e+18,1.5740698498961823e+18,42.95,1,0.04313582241655356
302,1.574069854632366e+18,1.574069854632154e+18,,16.3479995728,-0.0,,,,0.990000009537,,1.5740698455356196e+18,1.574069845535406e+18,-0.032,-0.214,0.023,1.21846967915e-07,1.21846967915e-07,1.21846967915e-07,-0.24516625,-0.16671305,9.63993695,9e-08,9e-08,9e-08,1.5740698455356152e+18,1.574069845535406e+18,93000.0,222000.0,-354000.0,1.574069864433517e+18,1.5740698644332966e+18,5.05191326141,-0.0780363082886,-0.183494567871,-0.00795415878201,-0.00506497953385,-0.148748248071,-0.988830135077,1.574069845541627e+18,1.5740698455414336e+18,94234.2163086,1.5740698455416246e+18,1.5740698455414336e+18,42.95,-1,-0.009481488445047592
23,1.5740698287575355e+18,1.5740698287572687e+18,,16.34212191512,-1.0322926815144629,,,,0.9900000095370001,,1.574069827404926e+18,1.574069827404604e+18,0.0006282051282051282,0.001094017094017093,-0.0010598290598290592,1.21846967915e-07,1.21846967915e-07,1.21846967915e-07,-0.37231742991452993,-0.04035813653846152,9.776308057264957,9e-08,9e-08,9e-08,1.574069827404909e+18,1.574069827404604e+18,98465.81196581197,224884.61538461538,-358504.2735042735,1.5740697912345426e+18,1.5740697912341317e+18,-0.0945625305176,2.71700668335,-1.00830507278,-0.00781388878349,-0.00354939568599,-0.234218229502,-0.972146164885,1.574069827421286e+18,1.574069827420985e+18,94237.20017131326,1.574069827421267e+18,1.574069827420985e+18,42.948589743589736,1,0.03128444148249526
0,1.5740698287575355e+18,1.5740698287572687e+18,,16.34212191512,-1.0322926815144629,,,,0.9900000095370001,,1.574069827404926e+18,1.574069827404604e+18,0.0006282051282051282,0.001094017094017093,-0.0010598290598290592,1.21846967915e-07,1.21846967915e-07,1.21846967915e-07,-0.37231742991452993,-0.04035813653846152,9.776308057264957,9e-08,9e-08,9e-08,1.574069827404909e+18,1.574069827404604e+18,98465.81196581197,224884.61538461538,-358504.2735042735,1.574069785712958e+18,1.574069785712743e+18,-0.553047657013,3.18225049973,-0.863592863083,-0.00762118484202,-0.00468710425595,-0.234685298668,-0.972030225448,1.574069827421286e+18,1.574069827420985e+18,94237.20017131326,1.574069827421267e+18,1.574069827420985e+18,42.948589743589736,1,0.013880864331746623
108,1.5740698007382638e+18,1.5740698007380943e+18,,16.3519992828,-0.0,,,,0.990000009537,,1.5740697989705477e+18,1.5740697989703567e+18,0.001,-0.001,1.22464679915e-19,1.21846967915e-07,1.21846967915e-07,1.21846967915e-07,-0.12748645,0.06864655,9.7674234,9e-08,9e-08,9e-08,1.5740697989705487e+18,1.5740697989703567e+18,116000.0,221000.0,-375000.0,1.5740698148480883e+18,1.5740698148475853e+18,3.6384677887,-0.927381038666,1.51756799221,0.0200849681712,-0.0171227279767,-0.176941698549,-0.983867390228,1.574069798994493e+18,1.574069798994243e+18,94247.5219727,1.574069798994493e+18,1.574069798994243e+18,42.95,1,0.030208300892940965
40,1.5740698287575355e+18,1.5740698287572687e+18,,16.34212191512,-1.0322926815144629,,,,0.9900000095370001,,1.574069827404926e+18,1.574069827404604e+18,0.0006282051282051282,0.001094017094017093,-0.0010598290598290592,1.21846967915e-07,1.21846967915e-07,1.21846967915e-07,-0.37231742991452993,-0.04035813653846152,9.776308057264957,9e-08,9e-08,9e-08,1.574069827404909e+18,1.574069827404604e+18,98465.81196581197,224884.61538461538,-358504.2735042735,1.574069795688407e+18,1.5740697956880266e+18,0.263695716858,-0.412758350372,0.119837760925,-0.00793514420745,-0.00412817096484,-0.234344465149,-0.972112474637,1.574069827421286e+18,1.574069827420985e+18,94237.20017131326,1.574069827421267e+18,1.574069827420985e+18,42.948589743589736,1,0.04581641602180481
85,1.574069793480968e+18,1.574069793480818e+18,,16.4060001373,-0.0,,,,0.990000009537,,1.5740697935010806e+18,1.5740697935008704e+18,0.0,2.44929359829e-19,0.002,1.21846967915e-07,1.21846967915e-07,1.21846967915e-07,-0.10787315,0.08825985,9.7870367,9e-08,9e-08,9e-08,1.5740697935010765e+18,1.5740697935008704e+18,105000.0,223000.0,-370000.0,1.574069808314418e+18,1.5740698083141896e+18,2.16094923019,-1.47560358047,0.533500671387,7.10764097557e-06,0.00767599386885,-0.212299931409,-0.977174405207,1.5740697935126418e+18,1.574069793512437e+18,94246.3623047,1.5740697935126474e+18,1.574069793512437e+18,42.95,1,0.018532028831378
166,1.5740698184923072e+18,1.5740698184921544e+18,,16.313999176,-2.42000007629,,,,0.990000009537,,1.574069812905145e+18,1.5740698129049828e+18,-0.008,-0.002,0.006,1.21846967915e-07,1.21846967915e-07,1.21846967915e-07,-0.36284605,-0.0392266,9.85568325,9e-08,9e-08,9e-08,1.574069812905135e+18,1.5740698129049828e+18,97000.0,226000.0,-358000.0,1.5740698302023002e+18,1.5740698302020616e+18,4.57819366455,-1.69189882278,0.892757415771,0.00689470576126,-0.045993797549,-0.242951828449,-0.968922825963,1.5740698129252564e+18,1.57406981292506e+18,94232.8552246,1.5740698129252503e+18,1.57406981292506e+18,42.95,1,0.04632852142961946
43,1.5740698287575355e+18,1.5740698287572687e+18,,16.34212191512,-1.0322926815144629,,,,0.9900000095370001,,1.574069827404926e+18,1.574069827404604e+18,0.0006282051282051282,0.001094017094017093,-0.0010598290598290592,1.21846967915e-07,1.21846967915e-07,1.21846967915e-07,-0.37231742991452993,-0.04035813653846152,9.776308057264957,9e-08,9e-08,9e-08,1.574069827404909e+18,1.574069827404604e+18,98465.81196581197,224884.61538461538,-358504.2735042735,1.5740697964821023e+18,1.5740697964819535e+18,0.40184879303,-0.677478313446,0.147634029388,-0.00821965153497,-0.00410197819542,-0.234523818229,-0.972066967748,1.574069827421286e+18,1.574069827420985e+18,94237.20017131326,1.574069827421267e+18,1.574069827420985e+18,42.948589743589736,1,0.04664020744880787
290,1.5740698517566807e+18,1.5740698517563433e+18,,16.3600006104,-0.0,,,,0.990000009537,,1.574069842651664e+18,1.5740698426514156e+18,0.011,-0.068,8.3275982342e-18,1.21846967915e-07,1.21846967915e-07,1.21846967915e-07,-1.3925443,-0.5099458,9.52225715,9e-08,9e-08,9e-08,1.5740698426516503e+18,1.5740698426514156e+18,146000.0,224000.0,-326000.0,1.574069861552827e+18,1.5740698615526093e+18,5.05348587036,-0.277485370636,-0.303632259369,-0.00886543012202,-0.00514319985157,-0.152640817261,-0.988228583148,1.57406984266295e+18,1.5740698426625774e+18,94227.6245117,1.574069842662937e+18,1.5740698426625774e+18,42.94,1,0.007651109890310426
297,1.5740698534332892e+18,1.5740698534329764e+18,,16.4349994659,-0.0,,,,0.990000009537,,1.574069844333287e+18,1.5740698443329e+18,0.068,0.109,-1.33486501107e-17,1.21846967915e-07,1.21846967915e-07,1.21846967915e-07,-1.08853815,-0.196133,9.58109705,9e-08,9e-08,9e-08,1.5740698443332695e+18,1.5740698443329e+18,133000.0,243000.0,-350000.0,1.5740698632326308e+18,1.5740698632324324e+18,5.06995773315,-0.12331199646,-0.254889965057,-0.00807069937773,-0.00517182090865,-0.150256756864,-0.988600537678,1.5740698443531098e+18,1.5740698443526904e+18,94230.5053711,1.574069844353107e+18,1.5740698443526904e+18,42.94,-1,-0.003989590197743587
170,1.5740698195519055e+18,1.5740698195516454e+18,,16.2630004883,-2.27999997139,,,,0.990000009537,,1.5740698138524526e+18,1.574069813852039e+18,-0.144,-0.046,-0.028,1.21846967915e-07,1.21846967915e-07,1.21846967915e-07,-0.0784532,-0.65704555,9.4536106,9e-08,9e-08,9e-08,1.5740698138524283e+18,1.574069813852039e+18,91000.0,244000.0,-347000.0,1.5740698312891412e+18,1.574069831288825e+18,4.59391689301,-1.47820425034,0.922870397568,0.0159677535116,-0.0661131610558,-0.240344991338,-0.968301794856,1.574069813876565e+18,1.5740698138761546e+18,94230.8166504,1.5740698138765228e+18,1.5740698138761546e+18,42.95,1,0.012880702822888779
247,1.5740698404317916e+18,1.5740698404316388e+18,,16.2439994812,-2.09999990463,,,,0.990000009537,,1.5740698323464215e+18,1.5740698323462124e+18,0.035,0.014,-0.023,1.21846967915e-07,1.21846967915e-07,1.21846967915e-07,-1.50041745,-0.12748645,9.73800345,9e-08,9e-08,9e-08,1.5740698323464138e+18,1.5740698323462124e+18,158000.0,229000.0,-338000.0,1.5740698512315466e+18,1.5740698512313364e+18,4.54929256439,-0.356815338135,-0.342328071594,-0.00731497391634,-0.00765055364793,-0.167699771515,-0.985781287517,1.5740698323597215e+18,1.5740698323595118e+18,94226.8005371,1.574069832359716e+18,1.5740698323595118e+18,42.95,1,0.04333999771276914
313,1.574069857285137e+18,1.5740698572849426e+18,,16.4060001373,-0.0,,,,0.990000009537,,1.5740698481994148e+18,1.5740698481992146e+18,-0.007,-0.081,0.011,1.21846967915e-07,1.21846967915e-07,1.21846967915e-07,0.46091255,-0.18632635,9.54187045,9e-08,9e-08,9e-08,1.574069848199423e+18,1.5740698481992146e+18,27000.0,223000.0,-373000.0,1.574069827495924e+18,1.574069827495589e+18,3.2567951714121715,-0.6578450435545226,0.40666120168644876,0.0019116727413196976,-0.016144441176382703,-0.2082914798044683,-0.9767310304856146,1.5740698482140984e+18,1.5740698482138967e+18,94244.152832,1.574069848214073e+18,1.5740698482138967e+18,42.95,1,0.02905112505827384
162,1.574069817355499e+18,1.5740698173550917e+18,,16.2670001984,-2.33999991417,,,,0.990000009537,,1.5740698119318326e+18,1.5740698119315387e+18,-0.032,0.071,0.003,1.21846967915e-07,1.21846967915e-07,1.21846967915e-07,0.28439285,0.0196133,9.91452315,9e-08,9e-08,9e-08,1.5740698119318246e+18,1.5740698119315387e+18,69000.0,218000.0,-361000.0,1.5740698291330145e+18,1.5740698291326715e+18,4.18665981293,-1.79116487503,0.996899604797,0.00476498534185,-0.00929618974635,-0.246263133128,-0.969146709757,1.5740698119460488e+18,1.574069811945853e+18,94235.0769043,1.5740698119460398e+18,1.574069811945853e+18,42.95,1,0.03298213123089416
227,1.5740698350626555e+18,1.5740698350622623e+18,,16.3120002747,-1.99000000954,,,,0.990000009537,,1.57406982753053e+18,1.574069827530017e+18,-0.091,-0.125,0.025,1.21846967915e-07,1.21846967915e-07,1.21846967915e-07,-1.2160246,0.06864655,9.7085835,9e-08,9e-08,9e-08,1.5740698275305032e+18,1.574069827530017e+18,142000.0,213000.0,-350000.0,1.5740698464396518e+18,1.57406984643926e+18,3.77073097229,-1.13479089737,0.226023674011,-0.00750449688561,0.0412441369296,-0.20096108127,-0.978701817466,1.5740698275554455e+18,1.574069827555046e+18,94228.4484863,1.5740698275554478e+18,1.574069827555046e+18,42.94,1,0.017339380242114066
204,1.5740698287854725e+18,1.574069828785275e+18,,16.3169994354,-2.23000001907,,,,0.990000009537,,1.5740698220310487e+18,1.5740698220306447e+18,0.122,-0.137,-0.026,1.21846967915e-07,1.21846967915e-07,1.21846967915e-07,-0.7453054,1.0983448,9.56148375,9e-08,9e-08,9e-08,1.5740698220310344e+18,1.5740698220306447e+18,127000.0,166000.0,-374000.0,1.5740698402968827e+18,1.574069840296456e+18,4.10902309418,-1.45896482468,1.093354702,0.0229077538573,-0.0355314669721,-0.264597640211,-0.963431802705,1.5740698220495132e+18,1.5740698220492534e+18,94225.6713867,1.5740698220494984e+18,1.5740698220492534e+18,42.95,-1,-0.0066008054852513265
28,1.5740698287575355e+18,1.5740698287572687e+18,,16.34212191512,-1.0322926815144629,,,,0.9900000095370001,,1.574069827404926e+18,1.574069827404604e+18,0.0006282051282051282,0.001094017094017093,-0.0010598290598290592,1.21846967915e-07,1.21846967915e-07,1.21846967915e-07,-0.37231742991452993,-0.04035813653846152,9.776308057264957,9e-08,9e-08,9e-08,1.574069827404909e+18,1.574069827404604e+18,98465.81196581197,224884.61538461538,-358504.2735042735,1.5740697924334945e+18,1.5740697924332726e+18,0.0258364677429,2.51294231415,-0.9936876297,-0.00794548163987,-0.0036479243209,-0.23429448426,-0.972126358358,1.574069827421286e+18,1.574069827420985e+18,94237.20017131326,1.574069827421267e+18,1.574069827420985e+18,42.948589743589736,1,0.037651144489616206
35,1.5740698287575355e+18,1.5740698287572687e+18,,16.34212191512,-1.0322926815144629,,,,0.9900000095370001,,1.574069827404926e+18,1.574069827404604e+18,0.0006282051282051282,0.001094017094017093,-0.0010598290598290592,1.21846967915e-07,1.21846967915e-07,1.21846967915e-07,-0.37231742991452993,-0.04035813653846152,9.776308057264957,9e-08,9e-08,9e-08,1.574069827404909e+18,1.574069827404604e+18,98465.81196581197,224884.61538461538,-358504.2735042735,1.574069794213222e+18,1.574069794212811e+18,0.0530962944031,-0.233201503754,0.0478956699371,-0.00838500056766,-0.00384707158761,-0.234311191108,-0.972117872239,1.574069827421286e+18,1.574069827420985e+18,94237.20017131326,1.574069827421267e+18,1.574069827420985e+18,42.948589743589736,1,0.04350664324385034
299,1.5740698539131182e+18,1.574069853912904e+18,,16.357000351,-0.0,,,,0.990000009537,,1.5740698448166733e+18,1.5740698448162417e+18,0.044,-0.187,-0.094,1.21846967915e-07,1.21846967915e-07,1.21846967915e-07,-0.6864655,-0.2157463,9.36535075,9e-08,9e-08,9e-08,1.574069844816637e+18,1.5740698448162417e+18,120000.0,232000.0,-347000.0,1.574069863711777e+18,1.5740698637115505e+18,5.0675444603,-0.0869016647339,-0.226479053497,-0.00795622024547,-0.00509390588045,-0.149652897202,-0.988693461616,1.5740698448374472e+18,1.574069844837081e+18,94230.682373,1.574069844837424e+18,1.574069844837081e+18,42.94,-1,-0.00772389288645936
94,1.5740697963005325e+18,1.574069796300181e+18,,16.3400001526,-0.0,,,,0.990000009537,,1.574069795646567e+18,1.5740697956461624e+18,0.0,1.22464679915e-19,0.001,1.21846967915e-07,1.21846967915e-07,1.21846967915e-07,-0.10787315,0.08825985,9.77723005,9e-08,9e-08,9e-08,1.574069795646564e+18,1.5740697956461624e+18,117000.0,218000.0,-374000.0,1.5740698108531392e+18,1.5740698108528684e+18,2.86627388,-1.41970300674,0.612637519836,-0.0138986922484,0.0363527403308,-0.160011607019,-0.986347601124,1.5740697956563023e+18,1.5740697956559084e+18,94245.9411621,1.5740697956562668e+18,1.5740697956559084e+18,42.95,1,0.025897493233028257
91,1.5740697953312435e+18,1.574069795330873e+18,,16.2889995575,-0.0,,,,0.990000009537,,1.5740697948916145e+18,1.5740697948913042e+18,-0.001,1.22464679915e-19,0.001,1.21846967915e-07,1.21846967915e-07,1.21846967915e-07,-0.10787315,0.08825985,9.81645665,9e-08,9e-08,9e-08,1.5740697948916232e+18,1.5740697948913042e+18,118000.0,217000.0,-378000.0,1.574069809972685e+18,1.5740698099724408e+18,2.53328132629,-1.58195066452,0.592163801193,-0.0146341874351,0.0317435772785,-0.175316134059,-0.983891477247,1.574069794905546e+18,1.5740697949053253e+18,94245.3674316,1.57406979490552e+18,1.5740697949053253e+18,42.95,1,0.01474062196202175
61,1.5740697877319332e+18,1.574069787731642e+18,,16.4729995728,-0.0,,,,0.990000009537,,1.5740697877333637e+18,1.5740697877329728e+18,0.0,0.0,0.0,1.21846967915e-07,1.21846967915e-07,1.21846967915e-07,-0.10787315,0.06864655,9.79684335,9e-08,9e-08,9e-08,1.5740697877333422e+18,1.5740697877329728e+18,113000.0,216000.0,-380000.0,1.5740698015545078e+18,1.574069801553896e+18,1.52688121796,-1.68825769424,0.161999940872,-0.00754536638174,-0.00364996128693,-0.235185979283,-0.971914245383,1.574069787760105e+18,1.5740697877597005e+18,94245.6542969,1.5740697877600722e+18,1.5740697877597005e+18,42.96,-1,-0.0007054142348906778
145,1.5740698123458112e+18,1.574069812345415e+18,,16.2630004883,-2.45000004768,,,,0.990000009537,,1.5740698078563256e+18,1.5740698078560988e+18,0.021,-1.2246467991500002e-18,-0.01,1.21846967915e-07,1.21846967915e-07,1.21846967915e-07,-0.04903325,-0.2157463,9.85568325,9e-08,9e-08,9e-08,1.574069807856296e+18,1.5740698078560988e+18,102000.0,226000.0,-368000.0,1.5740698246338673e+18,1.5740698246336164e+18,3.48849916458,-1.5205540657,1.61428022385,-0.00198492685945,-0.0257044444368,-0.241340872771,-0.970097894406,1.5740698078622367e+18,1.5740698078620908e+18,94243.0114746,1.574069807862234e+18,1.5740698078620908e+18,42.95,1,0.031054088030173677
67,1.574069789155261e+18,1.5740697891550308e+18,,16.3579998016,-0.0,,,,0.990000009537,,1.574069789181754e+18,1.5740697891815002e+18,0.0,0.0,0.0,1.21846967915e-07,1.21846967915e-07,1.21846967915e-07,-0.0980665,0.0784532,9.7870367,9e-08,9e-08,9e-08,1.5740697891817236e+18,1.5740697891815002e+18,118000.0,218000.0,-379000.0,1.5740698032347927e+18,1.574069803234351e+18,1.75980901718,-1.65109300613,0.189723014832,-0.00591697391761,-0.00790394286434,-0.235076152337,-0.971926807794,1.574069789196662e+18,1.5740697891964508e+18,94246.8322754,1.574069789196646e+18,1.5740697891964508e+18,42.96,1,0.01563411852986929
107,1.5740698003939845e+18,1.57406980039373e+18,,16.2889995575,-0.0,,,,0.990000009537,,1.5740697987309284e+18,1.5740697987305408e+18,0.0,0.001,0.002,1.21846967915e-07,1.21846967915e-07,1.21846967915e-07,-0.08825985,0.0784532,9.79684335,9e-08,9e-08,9e-08,1.574069798730907e+18,1.5740697987305408e+18,118000.0,211000.0,-373000.0,1.5740698145316134e+18,1.574069814531333e+18,3.62217497826,-0.927444934845,1.45616650581,0.0333627941662,-0.01681226374,-0.183327228819,-0.982341793332,1.5740697987485793e+18,1.5740697987481802e+18,94245.9716797,1.574069798748558e+18,1.5740697987481802e+18,42.95,1,0.027240627430360653
197,1.5740698269481372e+18,1.5740698269478052e+18,,16.3150005341,-2.20000004768,,,,0.990000009537,,1.5740698203450888e+18,1.5740698203446554e+18,-0.016,0.063,0.03,1.21846967915e-07,1.21846967915e-07,1.21846967915e-07,-0.32361945,0.34323275,9.5124505,9e-08,9e-08,9e-08,1.574069820345046e+18,1.5740698203446554e+18,122000.0,225000.0,-340000.0,1.574069838413544e+18,1.5740698384133158e+18,4.31712341309,-1.42566919327,1.02757430077,0.0349024563484,-0.0595614059238,-0.231559116415,-0.970368297643,1.5740698203638602e+18,1.5740698203634895e+18,94226.385498,1.5740698203638408e+18,1.5740698203634895e+18,42.95,1,0.04337070150041217
24,1.5740698287575355e+18,1.5740698287572687e+18,,16.34212191512,-1.0322926815144629,,,,0.9900000095370001,,1.574069827404926e+18,1.574069827404604e+18,0.0006282051282051282,0.001094017094017093,-0.0010598290598290592,1.21846967915e-07,1.21846967915e-07,1.21846967915e-07,-0.37231742991452993,-0.04035813653846152,9.776308057264957,9e-08,9e-08,9e-08,1.574069827404909e+18,1.574069827404604e+18,98465.81196581197,224884.61538461538,-358504.2735042735,1.5740697914715192e+18,1.5740697914713697e+18,-0.0694470405579,2.69447946548,-1.00244235992,-0.00770449882175,-0.00354860280753,-0.23425803222,-0.972137450393,1.574069827421286e+18,1.574069827420985e+18,94237.20017131326,1.574069827421267e+18,1.574069827420985e+18,42.948589743589736,1,0.03188525603544373
52,1.5740697855601157e+18,1.574069785559837e+18,,16.4230003357,-0.0,,,,0.990000009537,,1.5740697855905595e+18,1.5740697855902533e+18,0.001,1.22464679915e-19,0.001,1.21846967915e-07,1.21846967915e-07,1.21846967915e-07,-0.10787315,0.08825985,9.80665,9e-08,9e-08,9e-08,1.574069827404909e+18,1.574069827404604e+18,98465.81196581197,224884.61538461538,-358504.2735042735,1.5740697990031793e+18,1.5740697990029478e+18,0.797792434692,-1.53899431229,0.212622880936,-0.00842046303949,-0.00423146703027,-0.235043377577,-0.971939196219,1.574069785591628e+18,1.5740697855914447e+18,94247.4975586,1.5740697855915558e+18,1.5740697855914447e+18,42.96,-1,-0.020150182686938356
352,1.5740698287575355e+18,1.5740698287572687e+18,,16.34212191512,-1.0322926815144629,,,,0.9900000095370001,,1.574069857557634e+18,1.5740698575572503e+18,0.0,2.44929359829e-19,0.002,1.21846967915e-07,1.21846967915e-07,1.21846967915e-07,-0.1569064,0.06864655,9.7870367,9e-08,9e-08,9e-08,1.574069857557612e+18,1.5740698575572503e+18,48000.0,222000.0,-366000.0,1.574069827495924e+18,1.574069827495589e+18,3.2567951714121715,-0.6578450435545226,0.40666120168644876,0.0019116727413196976,-0.016144441176382703,-0.2082914798044683,-0.9767310304856146,1.5740698575771904e+18,1.574069857576806e+18,94247.442627,1.574069857577175e+18,1.574069857576806e+18,42.94,1,0.020486224512034967
160,1.5740698168112845e+18,1.5740698168109775e+18,,16.3090000153,-2.47000002861,,,,0.990000009537,,1.5740698114491988e+18,1.574069811448985e+18,0.034,0.08,0.053,1.21846967915e-07,1.21846967915e-07,1.21846967915e-07,0.50013915,-0.0392266,9.7281968,9e-08,9e-08,9e-08,1.574069811449125e+18,1.574069811448985e+18,60000.0,222000.0,-363000.0,1.574069828631309e+18,1.5740698286309023e+18,4.16374206543,-1.71425199509,1.08363771439,0.000224123302435,-0.00826383098825,-0.265513212906,-0.964071777742,1.5740698114765752e+18,1.5740698114764365e+18,94235.3210449,1.5740698114765652e+18,1.5740698114764365e+18,42.95,1,0.019947515477463484
77,1.5740697915512297e+18,1.574069791551047e+18,,16.4349994659,-0.0,,,,0.990000009537,,1.5740697915907712e+18,1.574069791590498e+18,0.002,1.22464679915e-19,0.001,1.21846967915e-07,1.21846967915e-07,1.21846967915e-07,-0.10787315,0.08825985,9.7870367,9e-08,9e-08,9e-08,1.5740697915907717e+18,1.574069791590498e+18,107000.0,217000.0,-370000.0,1.574069806047412e+18,1.5740698060469765e+18,2.11340045929,-1.40629911423,0.143625020981,-0.000415564429263,-0.0225683803407,-0.228243198825,-0.973342456541,1.5740697915916498e+18,1.57406979159128e+18,94246.4294434,1.57406979159157e+18,1.57406979159128e+18,42.95,1,0.014087393641910362
377,1.5740698287575355e+18,1.5740698287572687e+18,,16.34212191512,-1.0322926815144629,,,,0.9900000095370001,,1.5740698635490688e+18,1.5740698635488745e+18,0.0,0.0,0.0,1.21846967915e-07,1.21846967915e-07,1.21846967915e-07,-0.14709975,0.0784532,9.79684335,9e-08,9e-08,9e-08,1.574069863549056e+18,1.5740698635488745e+18,49000.0,228000.0,-369000.0,1.574069827495924e+18,1.574069827495589e+18,3.2567951714121715,-0.6578450435545226,0.40666120168644876,0.0019116727413196976,-0.016144441176382703,-0.2082914798044683,-0.9767310304856146,1.5740698635704284e+18,1.574069863570255e+18,94246.2646484,1.5740698635704338e+18,1.574069863570255e+18,42.94,1,0.004470483395491054
130,1.5740698076206548e+18,1.5740698076202516e+18,,16.3029994965,-2.97000002861,,,,0.990000009537,,1.574069804256394e+18,1.5740698042562104e+18,0.01,0.024,0.015,1.21846967915e-07,1.21846967915e-07,1.21846967915e-07,-0.1765197,0.10787315,9.7870367,9e-08,9e-08,9e-08,1.5740698042564224e+18,1.5740698042562104e+18,128000.0,210000.0,-360000.0,1.5740698206895286e+18,1.574069820689278e+18,3.85794472694,-1.42906904221,1.88101923466,0.0179060805852,-0.0239643583451,-0.239532641344,-0.970427326253,1.5740698042745697e+18,1.574069804274382e+18,94244.0673828,1.5740698042745526e+18,1.574069804274382e+18,42.96,1,0.0141697267324144
189,1.5740698247719572e+18,1.5740698247717916e+18,,16.3129997253,-2.25,,,,0.990000009537,,1.5740698184121848e+18,1.5740698184117985e+18,0.017,0.015,0.145,1.21846967915e-07,1.21846967915e-07,1.21846967915e-07,-0.59820565,-0.20593965,10.3362091,9e-08,9e-08,9e-08,1.574069818412193e+18,1.5740698184117985e+18,89000.0,252000.0,-339000.0,1.5740698363213174e+18,1.5740698363210614e+18,4.47206115723,-1.32938909531,0.993067502975,0.024502622869,-0.0715829454498,-0.221359381576,-0.972252810529,1.5740698184307548e+18,1.5740698184305664e+18,94227.4719238,1.5740698184307492e+18,1.5740698184305664e+18,42.95,1,0.015614784659252146
379,1.5740698287575355e+18,1.5740698287572687e+18,,16.34212191512,-1.0322926815144629,,,,0.9900000095370001,,1.5740698640399475e+18,1.5740698640395786e+18,0.0,1.22464679915e-19,0.001,1.21846967915e-07,1.21846967915e-07,1.21846967915e-07,-0.1372931,0.08825985,9.77723005,9e-08,9e-08,9e-08,1.574069864039927e+18,1.5740698640395786e+18,46000.0,223000.0,-358000.0,1.574069827495924e+18,1.574069827495589e+18,3.2567951714121715,-0.6578450435545226,0.40666120168644876,0.0019116727413196976,-0.016144441176382703,-0.2082914798044683,-0.9767310304856146,1.5740698640566986e+18,1.5740698640563192e+18,94246.0266113,1.574069864056682e+18,1.5740698640563192e+18,42.94,1,0.0004122864520424985
233,1.5740698366145055e+18,1.5740698366141555e+18,,16.3190002441,-2.11999988556,,,,0.990000009537,,1.5740698289729142e+18,1.5740698289724892e+18,0.005,0.07,0.018,1.21846967915e-07,1.21846967915e-07,1.21846967915e-07,-0.12748645,-0.14709975,9.8262633,9e-08,9e-08,9e-08,1.5740698289728794e+18,1.5740698289724892e+18,112000.0,231000.0,-358000.0,1.5740698478742986e+18,1.5740698478737428e+18,3.7411878109,-1.05577898026,-0.269520282745,-0.0191564976879,0.0517383856302,-0.186254890308,-0.980951213815,1.574069828992057e+18,1.5740698289915804e+18,94226.6174316,1.5740698289920356e+18,1.5740698289915804e+18,42.95,1,0.027492839957676152
98,1.5740697975960753e+18,1.5740697975958054e+18,,16.3010005951,-0.0,,,,0.990000009537,,1.574069796585854e+18,1.5740697965853842e+18,0.0,-0.001,0.001,1.21846967915e-07,1.21846967915e-07,1.21846967915e-07,-0.14709975,0.0784532,9.7870367,9e-08,9e-08,9e-08,1.574069796585799e+18,1.5740697965853842e+18,122000.0,217000.0,-367000.0,1.5740698119817413e+18,1.57406981198151e+18,3.23063325882,-1.20404863358,0.766550779343,-0.013131670821,0.0177979686856,-0.193617993517,-0.980827642412,1.574069796612776e+18,1.5740697966124096e+18,94248.1079102,1.5740697966127803e+18,1.5740697966124096e+18,42.96,1,0.01422242248238409
14,1.5740698287575355e+18,1.5740698287572687e+18,,16.34212191512,-1.0322926815144629,,,,0.9900000095370001,,1.574069827404926e+18,1.574069827404604e+18,0.0006282051282051282,0.001094017094017093,-0.0010598290598290592,1.21846967915e-07,1.21846967915e-07,1.21846967915e-07,-0.37231742991452993,-0.04035813653846152,9.776308057264957,9e-08,9e-08,9e-08,1.574069827404909e+18,1.574069827404604e+18,98465.81196581197,224884.61538461538,-358504.2735042735,1.574069789072854e+18,1.5740697890726664e+18,-0.289493083954,2.8682513237,-0.99546957016,-0.00802101956136,-0.00342572050478,-0.234410079542,-0.972098679298,1.574069827421286e+18,1.574069827420985e+18,94237.20017131326,1.574069827421267e+18,1.574069827420985e+18,42.948589743589736,1,0.029759008056249425
348,1.5740698287575355e+18,1.5740698287572687e+18,,16.34212191512,-1.0322926815144629,,,,0.9900000095370001,,1.5740698565925624e+18,1.5740698565922511e+18,-0.001,0.001,0.001,1.21846967915e-07,1.21846967915e-07,1.21846967915e-07,-0.1569064,0.0784532,9.77723005,9e-08,9e-08,9e-08,1.5740698565925573e+18,1.5740698565922511e+18,49000.0,225000.0,-367000.0,1.574069827495924e+18,1.574069827495589e+18,3.2567951714121715,-0.6578450435545226,0.40666120168644876,0.0019116727413196976,-0.016144441176382703,-0.2082914798044683,-0.9767310304856146,1.5740698566145014e+18,1.5740698566142177e+18,94246.5942383,1.57406985661449e+18,1.5740698566142177e+18,42.94,1,0.02297855709445884
134,1.5740698089118456e+18,1.5740698089116692e+18,,16.311000824,-2.45000004768,,,,0.990000009537,,1.5740698052248113e+18,1.5740698052244938e+18,0.018,0.026,0.001,1.21846967915e-07,1.21846967915e-07,1.21846967915e-07,-0.34323275,0.12748645,9.77723005,9e-08,9e-08,9e-08,1.5740698052248113e+18,1.5740698052244938e+18,130000.0,204000.0,-367000.0,1.5740698217183795e+18,1.5740698217181094e+18,3.79737925529,-1.71026468277,1.82285821438,-0.0504253061241,-0.0276013563731,-0.254052003944,-0.965480726333,1.5740698052256136e+18,1.5740698052253998e+18,94244.2138672,1.5740698052255772e+18,1.5740698052253998e+18,42.95,1,0.006819854683816684
165,1.5740698182097708e+18,1.5740698182093734e+18,,16.2719993591,-2.24000000954,,,,0.990000009537,,1.5740698126516004e+18,1.5740698126512855e+18,-0.019,-0.03,0.054,1.21846967915e-07,1.21846967915e-07,1.21846967915e-07,-0.26477955,-0.08825985,9.56148375,9e-08,9e-08,9e-08,1.5740698126515845e+18,1.5740698126512855e+18,98000.0,223000.0,-355000.0,1.5740698299145966e+18,1.5740698299143142e+18,4.46460008621,-1.72905683517,0.911374807358,0.0031889444606,-0.0345099065949,-0.248779720506,-0.967939847121,1.574069812667858e+18,1.574069812667388e+18,94233.1848145,1.5740698126678075e+18,1.574069812667388e+18,42.94,1,0.027730269035765365
168,1.5740698190116022e+18,1.5740698190114235e+18,,16.3090000153,-2.46000003815,,,,0.990000009537,,1.5740698133747953e+18,1.5740698133743708e+18,-0.082,-0.11,0.052,1.21846967915e-07,1.21846967915e-07,1.21846967915e-07,-0.7060788,-0.51975245,9.6497436,9e-08,9e-08,9e-08,1.5740698133747832e+18,1.5740698133743708e+18,103000.0,234000.0,-350000.0,1.5740698307332362e+18,1.574069830733066e+18,4.64695358276,-1.56818246841,0.890017032623,0.0198530971627,-0.058502578049,-0.240223927398,-0.968749589729,1.574069813391546e+18,1.5740698133913408e+18,94231.7504883,1.5740698133915277e+18,1.5740698133913408e+18,42.95,1,0.026488715394509532
210,1.5740698304127867e+18,1.5740698304124874e+18,,16.281999588,-2.40000009537,,,,0.990000009537,,1.574069823451619e+18,1.5740698234512026e+18,0.156,-0.167,-0.032,1.21846967915e-07,1.21846967915e-07,1.21846967915e-07,-0.4707192,-0.2745862,9.9831697,9e-08,9e-08,9e-08,1.574069823451607e+18,1.5740698234512026e+18,141000.0,226000.0,-332000.0,1.5740698418767708e+18,1.574069841876544e+18,4.0730676651,-1.3506770134,1.10333800316,0.026725604727,-0.0318989620395,-0.238693239434,-0.970202935329,1.574069823466895e+18,1.5740698234664484e+18,94228.3813477,1.5740698234668808e+18,1.5740698234664484e+18,42.94,1,0.009780567804422435
191,1.5740698253087296e+18,1.5740698253085875e+18,,16.2439994812,-2.20000004768,,,,0.990000009537,,1.5740698188873818e+18,1.5740698188870236e+18,0.084,0.046,0.054,1.21846967915e-07,1.21846967915e-07,1.21846967915e-07,-0.73549875,-0.6080123,9.6889702,9e-08,9e-08,9e-08,1.574069818887361e+18,1.5740698188870236e+18,91000.0,257000.0,-348000.0,1.5740698368367004e+18,1.574069836836487e+18,4.48532915115,-1.32946443558,1.01037740707,0.0245620458468,-0.0618816787478,-0.226056609078,-0.971836289316,1.574069818913063e+18,1.5740698189127375e+18,94226.5686035,1.5740698189130696e+18,1.5740698189127375e+18,42.95,1,0.015292835328185928
74,1.5740697908428375e+18,1.5740697908426478e+18,,16.4470005035,-0.0,,,,0.990000009537,,1.574069790862023e+18,1.574069790861782e+18,0.001,0.0,0.0,1.21846967915e-07,1.21846967915e-07,1.21846967915e-07,-0.0980665,0.0784532,9.80665,9e-08,9e-08,9e-08,1.574069790862016e+18,1.574069790861782e+18,114000.0,217000.0,-376000.0,1.5740698051984328e+18,1.5740698051981532e+18,1.90649032593,-1.55631113052,0.151658535004,-0.0066178505604,-0.00899101002759,-0.236387519772,-0.971594723271,1.5740697908765688e+18,1.574069790876198e+18,94247.5280762,1.5740697908765563e+18,1.574069790876198e+18,42.95,1,0.010381097316408627
83,1.5740697929953746e+18,1.574069792995183e+18,,16.3560009003,-0.0,,,,0.990000009537,,1.5740697930199762e+18,1.574069793019715e+18,0.0,1.22464679915e-19,0.001,1.21846967915e-07,1.21846967915e-07,1.21846967915e-07,-0.0980665,0.08825985,9.7870367,9e-08,9e-08,9e-08,1.5740697930199652e+18,1.574069793019715e+18,114000.0,218000.0,-374000.0,1.574069807762556e+18,1.5740698077622715e+18,2.15981245041,-1.47039556503,0.454332113266,0.00249119029115,-0.00268433278608,-0.217615967559,-0.976027601552,1.5740697930420396e+18,1.574069793041788e+18,94245.6848145,1.5740697930419845e+18,1.574069793041788e+18,42.96,1,0.026779660166933783
129,1.5740698072821473e+18,1.5740698072819732e+18,,16.2399997711,-2.65000009537,,,,0.990000009537,,1.5740698040163044e+18,1.5740698040158623e+18,0.002,0.03,-0.017,1.21846967915e-07,1.21846967915e-07,1.21846967915e-07,-0.3334261,0.1372931,9.75761675,9e-08,9e-08,9e-08,1.5740698040162598e+18,1.5740698040158623e+18,120000.0,209000.0,-369000.0,1.5740698204345172e+18,1.5740698204340928e+18,3.87536692619,-1.4339261055,1.87931144238,0.0181659342035,-0.0178911886518,-0.234023071696,-0.971896654031,1.5740698040258094e+18,1.5740698040253796e+18,94247.3754883,1.5740698040257833e+18,1.5740698040253796e+18,42.96,1,0.016655279141840174
142,1.5740698114113316e+18,1.5740698114111767e+18,,16.263999939,-2.34999990463,,,,0.990000009537,,1.5740698071359e+18,1.574069807135448e+18,-0.022,0.125,-0.038,1.21846967915e-07,1.21846967915e-07,1.21846967915e-07,-0.2549729,0.06864655,10.22833595,9e-08,9e-08,9e-08,1.5740698071358223e+18,1.574069807135448e+18,105000.0,220000.0,-368000.0,1.5740698238532173e+18,1.57406982385301e+18,3.60920333862,-1.69742155075,1.67876517773,0.0136973780321,-0.0190561199678,-0.256372378514,-0.966293148926,1.5740698071432796e+18,1.5740698071429005e+18,94240.5700684,1.5740698071432622e+18,1.5740698071429005e+18,42.95,1,0.020389976659874298
109,1.5740698010571003e+18,1.5740698010567675e+18,,16.3530006409,-0.0,,,,0.990000009537,,1.5740697992350792e+18,1.5740697992346954e+18,0.0,1.22464679915e-19,0.001,1.21846967915e-07,1.21846967915e-07,1.21846967915e-07,-0.0980665,0.06864655,9.80665,9e-08,9e-08,9e-08,1.5740697992350492e+18,1.5740697992346954e+18,125000.0,213000.0,-373000.0,1.574069815093075e+18,1.574069815092897e+18,3.64411687851,-0.91548204422,1.55259943008,0.00162205822928,-0.0488724073163,-0.170677755376,-0.984112778369,1.574069799252861e+18,1.5740697992524908e+18,94245.0866699,1.5740697992528678e+18,1.5740697992524908e+18,42.96,1,0.015251824130532887
82,1.5740697927690552e+18,1.5740697927687985e+18,,16.4750003815,-0.0,,,,0.990000009537,,1.5740697927867113e+18,1.5740697927863255e+18,0.0,0.0,0.0,1.21846967915e-07,1.21846967915e-07,1.21846967915e-07,-0.10787315,0.0784532,9.7870367,9e-08,9e-08,9e-08,1.5740697927866893e+18,1.5740697927863255e+18,115000.0,217000.0,-376000.0,1.5740698074973266e+18,1.5740698074969293e+18,2.19649600983,-1.45521593094,0.393529415131,-0.00433311394222,-0.00379123171675,-0.213430078822,-0.976941375999,1.574069792805402e+18,1.574069792804917e+18,94247.3388672,1.5740697928053852e+18,1.574069792804917e+18,42.95,1,0.021765212264801548
124,1.5740698056087224e+18,1.574069805608391e+18,,16.329000473,-1.65999996662,,,,0.990000009537,,1.5740698028154184e+18,1.5740698028152164e+18,0.0,-0.008,0.012,1.21846967915e-07,1.21846967915e-07,1.21846967915e-07,-0.10787315,0.0588399,9.7870367,9e-08,9e-08,9e-08,1.5740698028153915e+18,1.5740698028152164e+18,123000.0,213000.0,-374000.0,1.5740698190569564e+18,1.5740698190567176e+18,3.87420105934,-1.29077768326,1.87707185745,0.0297270611279,-0.0152864272189,-0.1924972022,-0.980728022504,1.574069802833414e+18,1.5740698028332252e+18,94247.8942871,1.574069802833415e+18,1.5740698028332252e+18,42.96,1,0.02151144799506488
368,1.5740698287575355e+18,1.5740698287572687e+18,,16.34212191512,-1.0322926815144629,,,,0.9900000095370001,,1.5740698613958464e+18,1.574069861395642e+18,0.001,0.0,0.0,1.21846967915e-07,1.21846967915e-07,1.21846967915e-07,-0.1372931,0.0784532,9.7674234,9e-08,9e-08,9e-08,1.5740698613958423e+18,1.574069861395642e+18,40000.0,224000.0,-365000.0,1.574069827495924e+18,1.574069827495589e+18,3.2567951714121715,-0.6578450435545226,0.40666120168644876,0.0019116727413196976,-0.016144441176382703,-0.2082914798044683,-0.9767310304856146,1.5740698614148454e+18,1.5740698614146296e+18,94245.1721191,1.5740698614148278e+18,1.5740698614146296e+18,42.94,1,0.023890714272750024
250,1.574069841312525e+18,1.574069841312208e+18,,16.2199993134,-1.92999994755,,,,0.990000009537,,1.5740698330447826e+18,1.5740698330443625e+18,-0.069,-0.224,0.053,1.21846967915e-07,1.21846967915e-07,1.21846967915e-07,-1.48080415,-0.2353596,9.4928372,9e-08,9e-08,9e-08,1.5740698330447424e+18,1.5740698330443625e+18,149000.0,232000.0,-336000.0,1.574069851953306e+18,1.5740698519530842e+18,4.65400409698,-0.30057477951,-0.262736320496,-0.00740253222538,-0.00728779997193,-0.166507209675,-0.98598551694,1.5740698330756664e+18,1.5740698330752184e+18,94225.1831055,1.5740698330756278e+18,1.5740698330752184e+18,42.95,1,0.01842677623863892
178,1.5740698217003574e+18,1.5740698217001672e+18,,16.2989997864,-2.25,,,,0.990000009537,,1.5740698157857065e+18,1.5740698157853164e+18,0.004,0.106,0.013,1.21846967915e-07,1.21846967915e-07,1.21846967915e-07,-0.3138128,-0.5099458,9.5320638,9e-08,9e-08,9e-08,1.5740698157856968e+18,1.5740698157853164e+18,76000.0,239000.0,-350000.0,1.5740698334218e+18,1.5740698334215514e+18,4.60534858704,-1.60755681992,0.976382493973,0.0284142335452,-0.053648962112,-0.240258842508,-0.968808602766,1.5740698158017485e+18,1.574069815801291e+18,94225.8544922,1.5740698158017114e+18,1.574069815801291e+18,42.94,1,0.024222925148905894
335,1.5740698625536123e+18,1.5740698625532122e+18,,16.3549995422,-0.0,,,,0.990000009537,,1.5740698534793718e+18,1.574069853479155e+18,0.0,-0.005,0.002,1.21846967915e-07,1.21846967915e-07,1.21846967915e-07,-0.14709975,0.06864655,9.77723005,9e-08,9e-08,9e-08,1.574069853479365e+18,1.574069853479155e+18,49000.0,223000.0,-371000.0,1.574069827495924e+18,1.574069827495589e+18,3.2567951714121715,-0.6578450435545226,0.40666120168644876,0.0019116727413196976,-0.016144441176382703,-0.2082914798044683,-0.9767310304856146,1.5740698534952246e+18,1.5740698534950098e+18,94247.3876953,1.5740698534951944e+18,1.5740698534950098e+18,42.94,1,0.03374235149042537
262,1.5740698448710108e+18,1.5740698448706353e+18,,16.3400001526,-0.300000011921,,,,0.990000009537,,1.574069835932731e+18,1.5740698359324634e+18,0.009,0.017,-0.026,1.21846967915e-07,1.21846967915e-07,1.21846967915e-07,-1.46119085,-0.16671305,9.60071035,9e-08,9e-08,9e-08,1.5740698359327178e+18,1.5740698359324634e+18,146000.0,236000.0,-335000.0,1.5740698548327767e+18,1.574069854832422e+18,4.87020492554,-0.100974082947,-0.117916822433,-0.00798443410892,-0.00594080874332,-0.162170847272,-0.986712507217,1.574069835951633e+18,1.574069835951312e+18,94225.8666992,1.5740698359516288e+18,1.574069835951312e+18,42.94,1,0.02899002580187221
125,1.5740698059300756e+18,1.574069805929936e+18,,16.3180007935,-1.92999994755,,,,0.990000009537,,1.574069803055342e+18,1.5740698030549276e+18,0.002,-0.017,-0.002,1.21846967915e-07,1.21846967915e-07,1.21846967915e-07,-0.3138128,0.0784532,9.7870367,9e-08,9e-08,9e-08,1.57406980305533e+18,1.5740698030549276e+18,125000.0,209000.0,-372000.0,1.574069819313372e+18,1.5740698193130143e+18,3.83399105072,-1.30276346207,1.87744724751,0.0178966277097,-0.0115538739843,-0.196363640428,-0.980299719183,1.574069803076297e+18,1.5740698030758477e+18,94245.9289551,1.5740698030762524e+18,1.5740698030758477e+18,42.96,1,0.02654711732755427
57,1.574069786758618e+18,1.5740697867583654e+18,,16.4729995728,-0.0,,,,0.990000009537,,1.574069786785304e+18,1.5740697867849052e+18,0.0,-0.001,1.22464679915e-19,1.21846967915e-07,1.21846967915e-07,1.21846967915e-07,-0.10787315,0.0784532,9.7870367,9e-08,9e-08,9e-08,1.5740697867852513e+18,1.5740697867849052e+18,122000.0,216000.0,-383000.0,1.5740698004310536e+18,1.57406980043084e+18,1.19157123566,-1.60311460495,0.16956114769,-0.00723053304562,-0.00648044408705,-0.235594279321,-0.971802993815,1.5740697868090104e+18,1.574069786808544e+18,94246.6308594,1.5740697868089636e+18,1.574069786808544e+18,42.96,-1,-0.01568455615392217
228,1.574069835319348e+18,1.5740698353191058e+18,,16.2539997101,-1.90999996662,,,,0.990000009537,,1.5740698277758917e+18,1.574069827775696e+18,-0.016,0.003,0.1,1.21846967915e-07,1.21846967915e-07,1.21846967915e-07,-0.85317855,0.0588399,9.7085835,9e-08,9e-08,9e-08,1.5740698277758648e+18,1.574069827775696e+18,137000.0,221000.0,-350000.0,1.57406984667321e+18,1.5740698466729915e+18,3.73709011078,-1.12236070633,0.189353942871,-0.00512444988761,0.0484371960769,-0.195508598537,-0.979491687534,1.574069827795575e+18,1.5740698277953846e+18,94226.159668,1.574069827795549e+18,1.5740698277953846e+18,42.95,1,0.023426742880959917
97,1.5740697972765274e+18,1.574069797276229e+18,,16.3120002747,-0.0,,,,0.990000009537,,1.574069796356848e+18,1.574069796356641e+18,0.001,-0.001,1.22464679915e-19,1.21846967915e-07,1.21846967915e-07,1.21846967915e-07,-0.10787315,0.0784532,9.77723005,9e-08,9e-08,9e-08,1.574069796356844e+18,1.574069796356641e+18,124000.0,212000.0,-368000.0,1.5740698116874796e+18,1.5740698116871086e+18,3.20011806488,-1.31404829025,0.695043563843,-0.0149811008729,0.0251458070382,-0.195751427894,-0.980216625794,1.5740697963659336e+18,1.5740697963657234e+18,94248.1994629,1.574069796365957e+18,1.5740697963657234e+18,42.96,1,0.012632173019607174
301,1.5740698544041267e+18,1.5740698544034253e+18,,16.4330005646,-0.0,,,,0.990000009537,,1.5740698452974449e+18,1.574069845297012e+18,-0.015,-0.167,-0.068,1.21846967915e-07,1.21846967915e-07,1.21846967915e-07,-0.1176798,-0.38245935,9.63993695,9e-08,9e-08,9e-08,1.574069845297385e+18,1.574069845297012e+18,103000.0,232000.0,-349000.0,1.5740698641912522e+18,1.5740698641910643e+18,5.05647277832,-0.059045791626,-0.200374603271,-0.00787136062474,-0.00507669880487,-0.149028231239,-0.988788579579,1.574069845314327e+18,1.574069845313965e+18,94229.7424316,1.574069845314297e+18,1.574069845313965e+18,42.94,-1,-0.014290179034227024
128,1.5740698069751217e+18,1.5740698069749883e+18,,16.3069992065,-2.68000006676,,,,0.990000009537,,1.5740698037921787e+18,1.5740698037919903e+18,-0.004,0.021,-0.028,1.21846967915e-07,1.21846967915e-07,1.21846967915e-07,-0.0980665,0.08825985,9.80665,9e-08,9e-08,9e-08,1.5740698037921567e+18,1.5740698037919903e+18,123000.0,210000.0,-364000.0,1.574069820161468e+18,1.574069820161257e+18,3.878439188,-1.43233633041,1.87224674225,0.0070012090661,-0.0241577343435,-0.225117332253,-0.974006967974,1.5740698038151322e+18,1.574069803814891e+18,94244.921875,1.574069803815099e+18,1.574069803814891e+18,42.95,1,0.027484451175322056
314,1.5740698575112054e+18,1.574069857510979e+18,,16.4270000458,-0.0,,,,0.990000009537,,1.5740698484330012e+18,1.574069848432698e+18,-0.01,0.254,-0.038,1.21846967915e-07,1.21846967915e-07,1.21846967915e-07,0.53936575,0.28439285,10.01258965,9e-08,9e-08,9e-08,1.5740698484329728e+18,1.574069848432698e+18,26000.0,226000.0,-372000.0,1.574069827495924e+18,1.574069827495589e+18,3.2567951714121715,-0.6578450435545226,0.40666120168644876,0.0019116727413196976,-0.016144441176382703,-0.2082914798044683,-0.9767310304856146,1.5740698484519365e+18,1.5740698484515292e+18,94246.0693359,1.5740698484519163e+18,1.5740698484515292e+18,42.95,1,0.026419313953500834
283,1.5740698500855273e+18,1.5740698500851113e+18,,16.4759998322,-0.0,,,,0.990000009537,,1.5740698409760888e+18,1.5740698409759068e+18,0.056,-0.035,-0.025,1.21846967915e-07,1.21846967915e-07,1.21846967915e-07,-0.93163175,-0.5099458,9.73800345,9e-08,9e-08,9e-08,1.5740698409760845e+18,1.5740698409759068e+18,140000.0,225000.0,-312000.0,1.5740698598714117e+18,1.574069859871206e+18,4.99967193604,-0.188917160034,-0.284061670303,-0.00884595738335,-0.00514343065346,-0.154933742324,-0.987871869044,1.5740698409947151e+18,1.574069840994541e+18,94227.1362305,1.5740698409947156e+18,1.574069840994541e+18,42.94,1,0.002948953103793839
277,1.5740698486332408e+18,1.5740698486330588e+18,,16.3589992523,-0.0,,,,0.990000009537,,1.574069839531654e+18,1.5740698395313516e+18,0.017,0.011,0.013,1.21846967915e-07,1.21846967915e-07,1.21846967915e-07,-1.2356379,-0.3530394,9.63993695,9e-08,9e-08,9e-08,1.5740698395316577e+18,1.5740698395313516e+18,146000.0,235000.0,-342000.0,1.574069858432973e+18,1.5740698584327212e+18,4.92883014679,-0.109589099884,-0.246793270111,-0.00848791107371,-0.00509276697022,-0.156833739959,-0.987575413374,1.574069839546424e+18,1.574069839546185e+18,94228.8085938,1.574069839546394e+18,1.574069839546185e+18,42.95,1,0.03461435468927915
22,1.5740698287575355e+18,1.5740698287572687e+18,,16.34212191512,-1.0322926815144629,,,,0.9900000095370001,,1.574069827404926e+18,1.574069827404604e+18,0.0006282051282051282,0.001094017094017093,-0.0010598290598290592,1.21846967915e-07,1.21846967915e-07,1.21846967915e-07,-0.37231742991452993,-0.04035813653846152,9.776308057264957,9e-08,9e-08,9e-08,1.574069827404909e+18,1.574069827404604e+18,98465.81196581197,224884.61538461538,-358504.2735042735,1.5740697909928215e+18,1.574069790992592e+18,-0.107394695282,2.70743703842,-1.00338101387,-0.00794749619645,-0.00354084768992,-0.23423057683,-0.972142138054,1.574069827421286e+18,1.574069827420985e+18,94237.20017131326,1.574069827421267e+18,1.574069827420985e+18,42.948589743589736,1,0.03255128003668317
176,1.574069821172158e+18,1.5740698211719642e+18,,16.3059997559,-2.46000003815,,,,0.990000009537,,1.5740698153028027e+18,1.5740698153025382e+18,-0.004,0.024,0.129,1.21846967915e-07,1.21846967915e-07,1.21846967915e-07,-0.83356525,0.02941995,9.7478101,9e-08,9e-08,9e-08,1.5740698153027717e+18,1.5740698153025382e+18,95000.0,238000.0,-357000.0,1.574069832890042e+18,1.574069832889735e+18,4.58108329773,-1.58986139297,0.967037916183,0.0208256947297,-0.08128820943,-0.227309007838,-0.970200562978,1.5740698153069522e+18,1.5740698153066488e+18,94228.7231445,1.57406981530691e+18,1.5740698153066488e+18,42.95,1,0.03132953726792381
48,1.5740698287575355e+18,1.5740698287572687e+18,,16.34212191512,-1.0322926815144629,,,,0.9900000095370001,,1.574069827404926e+18,1.574069827404604e+18,0.0006282051282051282,0.001094017094017093,-0.0010598290598290592,1.21846967915e-07,1.21846967915e-07,1.21846967915e-07,-0.37231742991452993,-0.04035813653846152,9.776308057264957,9e-08,9e-08,9e-08,1.574069827404909e+18,1.574069827404604e+18,98465.81196581197,224884.61538461538,-358504.2735042735,1.5740697978948083e+18,1.5740697978945487e+18,0.544364452362,-1.30457448959,0.216463327408,-0.00875536017927,-0.00387531475499,-0.234768729061,-0.972004099507,1.574069827421286e+18,1.574069827420985e+18,94237.20017131326,1.574069827421267e+18,1.574069827420985e+18,42.948589743589736,1,0.04329221653779569
55,1.5740697862763766e+18,1.574069786276089e+18,,16.3640003204,-0.0,,,,0.990000009537,,1.5740697862978002e+18,1.5740697862974234e+18,0.0,0.0,0.0,1.21846967915e-07,1.21846967915e-07,1.21846967915e-07,-0.1176798,0.06864655,9.7870367,9e-08,9e-08,9e-08,1.5740697862977743e+18,1.5740697862974234e+18,111000.0,216000.0,-369000.0,1.57406979983545e+18,1.5740697998352604e+18,1.0280456543,-1.60043382645,0.196295499802,-0.00798797470978,-0.00461803117659,-0.23532988402,-0.971871756836,1.5740697863209206e+18,1.574069786320468e+18,94244.7998047,1.5740697863209206e+18,1.574069786320468e+18,42.96,-1,-0.008199251828146958
70,1.5740697898812362e+18,1.5740697898808978e+18,,16.452999115,-0.0,,,,0.990000009537,,1.574069789896909e+18,1.5740697898965637e+18,0.002,0.002,-2.44929359829e-19,1.21846967915e-07,1.21846967915e-07,1.21846967915e-07,-0.08825985,0.0784532,9.77723005,9e-08,9e-08,9e-08,1.574069789896893e+18,1.5740697898965637e+18,109000.0,222000.0,-377000.0,1.5740698041180436e+18,1.574069804117601e+18,1.83535718918,-1.57404470444,0.155454397202,-0.00577436108685,-0.00755526764448,-0.235082262431,-0.971928960663,1.5740697899118804e+18,1.574069789911598e+18,94248.0651855,1.5740697899118502e+18,1.574069789911598e+18,42.96,1,0.0002463249475337381
193,1.574069825819464e+18,1.5740698258192748e+18,,16.3090000153,-2.30999994278,,,,0.990000009537,,1.5740698193736686e+18,1.574069819373222e+18,0.078,-0.008,0.107,1.21846967915e-07,1.21846967915e-07,1.21846967915e-07,-0.51975245,-0.6472389,9.6301303,9e-08,9e-08,9e-08,1.5740698193736404e+18,1.574069819373222e+18,99000.0,232000.0,-345000.0,1.574069837422567e+18,1.5740698374223465e+18,4.43621969223,-1.34229135513,1.00172519684,0.0268576493375,-0.0557463514708,-0.221318410384,-0.973236442081,1.5740698193918725e+18,1.574069819391466e+18,94224.4506836,1.574069819391856e+18,1.574069819391466e+18,42.95,1,0.025079797719936403
156,1.574069815759621e+18,1.5740698157592612e+18,,16.2980003357,-2.58999991417,,,,0.990000009537,,1.574069810511897e+18,1.574069810511683e+18,0.016,-0.045,-0.027,1.21846967915e-07,1.21846967915e-07,1.21846967915e-07,0.8825985,0.14709975,9.9047165,9e-08,9e-08,9e-08,1.5740698105119063e+18,1.574069810511683e+18,44000.0,224000.0,-363000.0,1.574069827564463e+18,1.5740698275640335e+18,3.98553347588,-1.62599802017,1.24754536152,0.00149356768204,-0.0530576544853,-0.246083229761,-0.967794243931,1.5740698105136732e+18,1.574069810513498e+18,94238.9221191,1.574069810513651e+18,1.574069810513498e+18,42.95,1,0.02727085562348258
219,1.574069832836687e+18,1.5740698328364685e+18,,16.3150005341,-2.11999988556,,,,0.990000009537,,1.574069825615306e+18,1.5740698256148695e+18,-0.074,-0.003,-0.027,1.21846967915e-07,1.21846967915e-07,1.21846967915e-07,-0.99047165,0.2157463,9.63993695,9e-08,9e-08,9e-08,1.5740698256153057e+18,1.5740698256148695e+18,147000.0,218000.0,-348000.0,1.5740698443156237e+18,1.5740698443152415e+18,3.86133027077,-1.32256364822,0.928364276886,0.0229190377585,-0.054628248864,-0.215251351672,-0.974760138566,1.5740698256258698e+18,1.5740698256254702e+18,94227.6855469,1.5740698256258555e+18,1.5740698256254702e+18,42.94,1,0.030077037949068464
115,1.5740698029045563e+18,1.574069802904351e+18,,16.3519992828,-0.0,,,,0.990000009537,,1.5740698006481183e+18,1.5740698006476598e+18,0.003,0.017,0.016,1.21846967915e-07,1.21846967915e-07,1.21846967915e-07,-0.0980665,-0.0392266,9.7478101,9e-08,9e-08,9e-08,1.5740698006480993e+18,1.5740698006476598e+18,118000.0,215000.0,-373000.0,1.5740698166845745e+18,1.5740698166844692e+18,3.68427491188,-0.909030437469,1.75994575024,0.035173987889,-0.026816495867,-0.194810319051,-0.97984315363,1.5740698006656453e+18,1.574069800665231e+18,94246.6369629,1.5740698006656512e+18,1.574069800665231e+18,42.95,1,0.031546940590823136
285,1.574069850552937e+18,1.5740698505528118e+18,,16.3549995422,-0.0,,,,0.990000009537,,1.57406984144817e+18,1.5740698414479398e+18,0.025,0.089,-0.006,1.21846967915e-07,1.21846967915e-07,1.21846967915e-07,-1.0002783,-0.59820565,9.6693569,9e-08,9e-08,9e-08,1.5740698414481487e+18,1.5740698414479398e+18,131000.0,238000.0,-335000.0,1.5740698603530473e+18,1.5740698603528986e+18,5.00210762024,-0.268259525299,-0.303217411041,-0.00908201720349,-0.00502834745887,-0.154418590894,-0.987950976249,1.5740698414622728e+18,1.5740698414620431e+18,94227.8625488,1.5740698414622477e+18,1.5740698414620431e+18,42.95,1,0.02029085111495177
136,1.574069809619871e+18,1.5740698096195748e+18,,16.3059997559,-2.34999990463,,,,0.990000009537,,1.5740698057151058e+18,1.5740698057147308e+18,-0.028,-0.017,0.043,1.21846967915e-07,1.21846967915e-07,1.21846967915e-07,-0.1569064,0.20593965,9.91452315,9e-08,9e-08,9e-08,1.5740698057151242e+18,1.5740698057147308e+18,131000.0,209000.0,-364000.0,1.5740698222849876e+18,1.5740698222847693e+18,3.7905189991,-1.82544279099,1.79284954071,-0.0628460963393,-0.030240295456,-0.228046698923,-0.97114911101,1.5740698057328947e+18,1.5740698057326177e+18,94246.7224121,1.5740698057328556e+18,1.5740698057326177e+18,42.96,-1,-0.0023830594335251254
217,1.5740698323215974e+18,1.5740698323214044e+18,,16.2460002899,-1.96000003815,,,,0.990000009537,,1.5740698251296648e+18,1.5740698251293573e+18,-0.025,0.073,0.055,1.21846967915e-07,1.21846967915e-07,1.21846967915e-07,-1.12776475,0.196133,9.4928372,9e-08,9e-08,9e-08,1.5740698251296666e+18,1.5740698251293573e+18,139000.0,217000.0,-364000.0,1.5740698437934733e+18,1.574069843793159e+18,3.88127732277,-1.33146333694,0.978491783142,0.0378358581768,-0.0824792648591,-0.21354002695,-0.97271078723,1.5740698251445e+18,1.574069825144279e+18,94228.0212402,1.574069825144511e+18,1.574069825144279e+18,42.95,1,0.02060629419364346
374,1.5740698287575355e+18,1.5740698287572687e+18,,16.34212191512,-1.0322926815144629,,,,0.9900000095370001,,1.5740698628385526e+18,1.5740698628382848e+18,0.0,0.0,0.0,1.21846967915e-07,1.21846967915e-07,1.21846967915e-07,-0.14709975,0.08825985,9.80665,9e-08,9e-08,9e-08,1.5740698628385574e+18,1.5740698628382848e+18,50000.0,224000.0,-368000.0,1.574069827495924e+18,1.574069827495589e+18,3.2567951714121715,-0.6578450435545226,0.40666120168644876,0.0019116727413196976,-0.016144441176382703,-0.2082914798044683,-0.9767310304856146,1.5740698628554437e+18,1.5740698628551818e+18,94245.4528809,1.5740698628553702e+18,1.5740698628551818e+18,42.94,1,0.008080377108671044
272,1.5740698474351567e+18,1.5740698474348175e+18,,16.4370002747,-0.0,,,,0.990000009537,,1.5740698383309327e+18,1.5740698383306655e+18,0.032,0.011,0.026,1.21846967915e-07,1.21846967915e-07,1.21846967915e-07,-1.5298374,-0.38245935,9.65955025,9e-08,9e-08,9e-08,1.574069838330926e+18,1.5740698383306655e+18,141000.0,244000.0,-334000.0,1.5740698572340255e+18,1.5740698572336328e+18,4.90631961823,-0.203946590424,-0.204049825668,-0.00880539637376,-0.00524937955544,-0.158677328187,-0.987277273378,1.5740698383543296e+18,1.5740698383538158e+18,94225.5859375,1.5740698383541115e+18,1.5740698383538158e+18,42.94,1,0.01326652953431623
146,1.574069812705047e+18,1.5740698127046807e+18,,16.3040008545,-2.43000006676,,,,0.990000009537,,1.5740698080863962e+18,1.5740698080859827e+18,-0.042,-0.131,-0.092,1.21846967915e-07,1.21846967915e-07,1.21846967915e-07,0.08825985,-0.12748645,9.52225715,9e-08,9e-08,9e-08,1.5740698080863887e+18,1.5740698080859827e+18,100000.0,228000.0,-367000.0,1.574069824928369e+18,1.5740698249279775e+18,3.47226572037,-1.52985715866,1.60107052326,-0.00183926370393,-0.0377160203819,-0.241981154064,-0.969545893701,1.5740698081092849e+18,1.574069808108816e+18,94239.6606445,1.5740698081092216e+18,1.574069808108816e+18,42.95,1,0.018044208445910703
284,1.5740698503121644e+18,1.5740698503118236e+18,,16.4060001373,-0.0,,,,0.990000009537,,1.57406984122213e+18,1.574069841221661e+18,-0.015,-0.031,-0.031,1.21846967915e-07,1.21846967915e-07,1.21846967915e-07,-0.44129925,-0.2745862,9.79684335,9e-08,9e-08,9e-08,1.574069841222134e+18,1.574069841221661e+18,134000.0,236000.0,-334000.0,1.5740698601135493e+18,1.5740698601131694e+18,5.00182247162,-0.2308344841,-0.294068098068,-0.00897783925727,-0.00512189256375,-0.154706145686,-0.987906459694,1.5740698412408271e+18,1.5740698412403717e+18,94226.3427734,1.5740698412408218e+18,1.5740698412403717e+18,42.95,1,0.025329408839815548
10,1.5740698287575355e+18,1.5740698287572687e+18,,16.34212191512,-1.0322926815144629,,,,0.9900000095370001,,1.574069827404926e+18,1.574069827404604e+18,0.0006282051282051282,0.001094017094017093,-0.0010598290598290592,1.21846967915e-07,1.21846967915e-07,1.21846967915e-07,-0.37231742991452993,-0.04035813653846152,9.776308057264957,9e-08,9e-08,9e-08,1.574069827404909e+18,1.574069827404604e+18,98465.81196581197,224884.61538461538,-358504.2735042735,1.5740697881131876e+18,1.5740697881129585e+18,-0.365975856781,2.84956264496,-0.978034973145,-0.00854835033375,-0.0035275356847,-0.234472696634,-0.972078719411,1.574069827421286e+18,1.574069827420985e+18,94237.20017131326,1.574069827421267e+18,1.574069827420985e+18,42.948589743589736,1,0.025875460206169543
270,1.5740698469620529e+18,1.5740698469616466e+18,,16.4039993286,-0.0,,,,0.990000009537,,1.5740698378559278e+18,1.5740698378555643e+18,-0.081,-0.027,-0.025,1.21846967915e-07,1.21846967915e-07,1.21846967915e-07,-1.36312435,-0.50013915,9.5516771,9e-08,9e-08,9e-08,1.574069837855891e+18,1.5740698378555643e+18,147000.0,238000.0,-336000.0,1.5740698567592545e+18,1.5740698567587633e+18,4.90520763397,-0.165891170502,-0.167439699173,-0.00866102095039,-0.00544651741824,-0.159253463515,-0.987184712464,1.5740698378651402e+18,1.5740698378649818e+18,94227.0996094,1.574069837865132e+18,1.5740698378649818e+18,42.95,1,0.030040001580827147
281,1.5740698495923249e+18,1.5740698495920182e+18,,16.361000061,-0.0,,,,0.990000009537,,1.574069840489776e+18,1.5740698404895951e+18,-0.053,-0.001,-0.036,1.21846967915e-07,1.21846967915e-07,1.21846967915e-07,-0.7060788,-0.4314926,9.62032365,9e-08,9e-08,9e-08,1.5740698404897196e+18,1.5740698404895951e+18,138000.0,230000.0,-343000.0,1.5740698593926103e+18,1.5740698593923525e+18,4.97402763367,-0.126226902008,-0.276504278183,-0.00861876684421,-0.00511202272582,-0.155512582596,-0.987783083848,1.574069840509209e+18,1.5740698405090703e+18,94227.2216797,1.5740698405092065e+18,1.5740698405090703e+18,42.95,1,0.024824981772024246
26,1.5740698287575355e+18,1.5740698287572687e+18,,16.34212191512,-1.0322926815144629,,,,0.9900000095370001,,1.574069827404926e+18,1.574069827404604e+18,0.0006282051282051282,0.001094017094017093,-0.0010598290598290592,1.21846967915e-07,1.21846967915e-07,1.21846967915e-07,-0.37231742991452993,-0.04035813653846152,9.776308057264957,9e-08,9e-08,9e-08,1.574069827404909e+18,1.574069827404604e+18,98465.81196581197,224884.61538461538,-358504.2735042735,1.5740697919521787e+18,1.5740697919518769e+18,-0.021665096283,2.61710357666,-0.996549367905,-0.00777064253799,-0.00362070393617,-0.234299287822,-0.972126715683,1.574069827421286e+18,1.574069827420985e+18,94237.20017131326,1.574069827421267e+18,1.574069827420985e+18,42.948589743589736,1,0.035338910819708524
13,1.5740698287575355e+18,1.5740698287572687e+18,,16.34212191512,-1.0322926815144629,,,,0.9900000095370001,,1.574069827404926e+18,1.574069827404604e+18,0.0006282051282051282,0.001094017094017093,-0.0010598290598290592,1.21846967915e-07,1.21846967915e-07,1.21846967915e-07,-0.37231742991452993,-0.04035813653846152,9.776308057264957,9e-08,9e-08,9e-08,1.574069827404909e+18,1.574069827404604e+18,98465.81196581197,224884.61538461538,-358504.2735042735,1.5740697888335698e+18,1.574069788833199e+18,-0.308845043182,2.87033510208,-0.986785411835,-0.00812328660595,-0.00348570895163,-0.234479732115,-0.972080818284,1.574069827421286e+18,1.574069827420985e+18,94237.20017131326,1.574069827421267e+18,1.574069827420985e+18,42.948589743589736,1,0.030343728171559725
276,1.574069848392121e+18,1.5740698483917668e+18,,16.436000824,-0.0,,,,0.990000009537,,1.574069839290146e+18,1.5740698392896847e+18,0.0,0.006,-7.34788079488e-19,1.21846967915e-07,1.21846967915e-07,1.21846967915e-07,-0.8433719,-0.28439285,9.5516771,9e-08,9e-08,9e-08,1.5740698392901094e+18,1.5740698392896847e+18,148000.0,234000.0,-344000.0,1.5740698581935002e+18,1.574069858193094e+18,4.91334438324,-0.122155189514,-0.238839387894,-0.00847127062437,-0.00510099744587,-0.157171725764,-0.987521780023,1.5740698393066844e+18,1.5740698393063002e+18,94226.2023926,1.5740698393066412e+18,1.5740698393063002e+18,42.95,1,0.03696181725692865
127,1.5740698066634964e+18,1.5740698066631967e+18,,16.3159999847,-2.26999998093,,,,0.990000009537,,1.5740698035314732e+18,1.574069803531093e+18,0.0,-0.013,-0.015,1.21846967915e-07,1.21846967915e-07,1.21846967915e-07,-0.1765197,0.0980665,9.7674234,9e-08,9e-08,9e-08,1.5740698035314573e+18,1.574069803531093e+18,125000.0,214000.0,-358000.0,1.5740698199016384e+18,1.574069819901318e+18,3.86346364021,-1.38490629196,1.87177217007,0.0054500428555,-0.0232778600532,-0.212777617908,-0.976808130383,1.574069803544189e+18,1.574069803543831e+18,94246.4416504,1.5740698035441713e+18,1.574069803543831e+18,42.96,1,0.025621168927704108
341,1.5740698639952584e+18,1.5740698639949412e+18,,16.3990001678,-0.0,,,,0.990000009537,,1.574069854913135e+18,1.5740698549129037e+18,0.0,0.002,-2.44929359829e-19,1.21846967915e-07,1.21846967915e-07,1.21846967915e-07,-0.1569064,0.0784532,9.77723005,9e-08,9e-08,9e-08,1.5740698549131323e+18,1.5740698549129037e+18,49000.0,227000.0,-365000.0,1.574069827495924e+18,1.574069827495589e+18,3.2567951714121715,-0.6578450435545226,0.40666120168644876,0.0019116727413196976,-0.016144441176382703,-0.2082914798044683,-0.9767310304856146,1.5740698549300431e+18,1.5740698549298207e+18,94247.7844238,1.574069854929993e+18,1.5740698549298207e+18,42.94,1,0.027460178356750464
